"금연구역명",금연구역범위상세,시도명,시군구명,금연구역구분,금연구역지정근거명,금연구역면적,위반과태료,위반신고전화번호,소재지도로명주소,소재지지번주소,관리기관명,위도,경도,데이터기준일자
"남목청소년문화의집",시설 실내,울산광역시,동구,청소년 활동시설,국민건강증진법 제9조,,100000,052-209-4131,울산광역시 동구 남목9길 13 (서부동),울산광역시 동구 남목9길 13 (서부동),울산광역시 동구,35.5412706,129.4252022,2019-09-18
"동구청소년문화의집",시설 실내,울산광역시,동구,청소년 활동시설,국민건강증진법 제9조,,100000,052-209-4131,울산광역시 동구 봉수로 155 (화정동),울산광역시 동구 봉수로 155 (화정동),울산광역시 동구,35.5050862,129.4166463,2019-09-18
"거북이게임장",시설 실내,울산광역시,동구,게임제공업소,국민건강증진법 제9조,,100000,052-209-4131,울산광역시 동구 꽃바위로 270 (방어동),울산광역시 동구 꽃바위로 270 (방어동),울산광역시 동구,35.4833772,129.4187501,2019-09-18
"견우프로방스",시설 실내,울산광역시,동구,게임제공업소,국민건강증진법 제9조,,100000,052-209-4131,울산광역시 동구 꽃바위로 273-1 (방어동),울산광역시 동구 꽃바위로 273-1 (방어동),울산광역시 동구,35.4838586,129.4189701,2019-09-18
"깨비PC방",시설 실내,울산광역시,동구,게임제공업소,국민건강증진법 제9조,,100000,052-209-4131,"울산광역시 동구 꽃바위로 290, 1층 (방어동)","울산광역시 동구 꽃바위로 290, 1층 (방어동)",울산광역시 동구,35.484276,129.4207196,2019-09-18
"꽃바위PC(방어동)",시설 실내,울산광역시,동구,게임제공업소,국민건강증진법 제9조,,100000,052-209-4131,울산광역시 동구 꽃바위로 304(방어동),울산광역시 동구 꽃바위로 304(방어동),울산광역시 동구,35.4849301,129.4220402,2019-09-18
"낙원게임랜드",시설 실내,울산광역시,동구,게임제공업소,국민건강증진법 제9조,,100000,052-209-4131,"울산광역시 동구 남목18길 8, 2층 211호 (동부동, 남목시티프라자)","울산광역시 동구 남목18길 8, 2층 211호 (동부동, 남목시티프라자)",울산광역시 동구,35.5427086,129.4286693,2019-09-18
"놀러와 게임랜드",시설 실내,울산광역시,동구,게임제공업소,국민건강증진법 제9조,,100000,052-209-4131,"울산광역시 동구 대송1길 19, 1층 (화정동)","울산광역시 동구 대송1길 19, 1층 (화정동)",울산광역시 동구,35.4995881,129.4190428,2019-09-18
"대박뽑기방",시설 실내,울산광역시,동구,게임제공업소,국민건강증진법 제9조,,100000,052-209-4131,"울산광역시 동구 대송1길 20, 2층 (화정동)","울산광역시 동구 대송1길 20, 2층 (화정동)",울산광역시 동구,35.4993685,129.4191657,2019-09-18
"대빵놀이터",시설 실내,울산광역시,동구,게임제공업소,국민건강증진법 제9조,,100000,052-209-4131,울산광역시 동구 대송6길 14 (화정동),울산광역시 동구 대송6길 14 (화정동),울산광역시 동구,35.4992476,129.4193333,2019-09-18
"대왕암오락실",시설 실내,울산광역시,동구,게임제공업소,국민건강증진법 제9조,,100000,052-209-4131,"울산광역시 동구 대송로 5, 1층 (일산동)","울산광역시 동구 대송로 5, 1층 (일산동)",울산광역시 동구,35.5041079,129.4289806,2019-09-18
"더 조은 게임랜드",시설 실내,울산광역시,동구,게임제공업소,국민건강증진법 제9조,,100000,052-209-4131,울산광역시 동구 대송로 86 (화정동),울산광역시 동구 대송로 86 (화정동),울산광역시 동구,35.5005449,129.4240425,2019-09-18
"데일리PC",시설 실내,울산광역시,동구,게임제공업소,국민건강증진법 제9조,,100000,052-209-4131,"울산광역시 동구 대학길 143, 1층 (일산동)","울산광역시 동구 대학길 143, 1층 (일산동)",울산광역시 동구,35.4977744,129.4254143,2019-09-18
"라이또PC방 울산본점",시설 실내,울산광역시,동구,게임제공업소,국민건강증진법 제9조,,100000,052-209-4131,"울산광역시 동구 대학길 145, 3층 (일산동)","울산광역시 동구 대학길 145, 3층 (일산동)",울산광역시 동구,35.4977577,129.4256047,2019-09-18
"레드배틀PC방",시설 실내,울산광역시,동구,게임제공업소,국민건강증진법 제9조,,100000,052-209-4131,"울산광역시 동구 대학길 156, 1층 (화정동)","울산광역시 동구 대학길 156, 1층 (화정동)",울산광역시 동구,35.4972232,129.4257616,2019-09-18
"렛츠고PC방",시설 실내,울산광역시,동구,게임제공업소,국민건강증진법 제9조,,100000,052-209-4131,"울산광역시 동구 대학길 173, 1층 (일산동)","울산광역시 동구 대학길 173, 1층 (일산동)",울산광역시 동구,35.4973091,129.4269535,2019-09-18
"로얄게임랜드",시설 실내,울산광역시,동구,게임제공업소,국민건강증진법 제9조,,100000,052-209-4131,"울산광역시 동구 대학길 184, 1층 (화정동)","울산광역시 동구 대학길 184, 1층 (화정동)",울산광역시 동구,35.4967056,129.4273792,2019-09-18
"루카스 PC방 남목점",시설 실내,울산광역시,동구,게임제공업소,국민건강증진법 제9조,,100000,052-209-4131,"울산광역시 동구 동해안로 46, 3층 (동부동)","울산광역시 동구 동해안로 46, 3층 (동부동)",울산광역시 동구,35.5420743,129.4284187,2019-09-18
"리오PC방(방어점)",시설 실내,울산광역시,동구,게임제공업소,국민건강증진법 제9조,,100000,052-209-4131,"울산광역시 동구 동해안로 50, 1층 (동부동)","울산광역시 동구 동해안로 50, 1층 (동부동)",울산광역시 동구,35.5420823,129.4287309,2019-09-18
"리움PC존",시설 실내,울산광역시,동구,게임제공업소,국민건강증진법 제9조,,100000,052-209-4131,"울산광역시 동구 동해안로 50, 3층 (동부동)","울산광역시 동구 동해안로 50, 3층 (동부동)",울산광역시 동구,35.5420823,129.4287309,2019-09-18
"만만게임장",시설 실내,울산광역시,동구,게임제공업소,국민건강증진법 제9조,,100000,052-209-4131,"울산광역시 동구 동해안로 73, 2층 (동부동)","울산광역시 동구 동해안로 73, 2층 (동부동)",울산광역시 동구,35.5433869,129.4305229,2019-09-18
"맨유PC(전하점)",시설 실내,울산광역시,동구,게임제공업소,국민건강증진법 제9조,,100000,052-209-4131,"울산광역시 동구 등대3길 40, 2층 (방어동)","울산광역시 동구 등대3길 40, 2층 (방어동)",울산광역시 동구,35.48809638,129.4290407,2019-09-18
"모여라뽑기왕",시설 실내,울산광역시,동구,게임제공업소,국민건강증진법 제9조,,100000,052-209-4131,"울산광역시 동구 등대5길 2, 301호 (방어동)","울산광역시 동구 등대5길 2, 301호 (방어동)",울산광역시 동구,35.48763803,129.428714,2019-09-18
"몽게임랜드",시설 실내,울산광역시,동구,게임제공업소,국민건강증진법 제9조,,100000,052-209-4131,울산광역시 동구 명덕3길 13 (서부동),울산광역시 동구 명덕3길 13 (서부동),울산광역시 동구,35.5235213,129.4318339,2019-09-18
"문재게임랜드",시설 실내,울산광역시,동구,게임제공업소,국민건강증진법 제9조,,100000,052-209-4131,울산광역시 동구 명덕3길 6(서부동),울산광역시 동구 명덕3길 6(서부동),울산광역시 동구,35.5235344,129.4324758,2019-09-18
"미스터고 인형뽑기 전문샵",시설 실내,울산광역시,동구,게임제공업소,국민건강증진법 제9조,,100000,052-209-4131,"울산광역시 동구 명덕4길 10, 3층 (서부동)","울산광역시 동구 명덕4길 10, 3층 (서부동)",울산광역시 동구,35.5229866,129.4322312,2019-09-18
"발리게임랜드",시설 실내,울산광역시,동구,게임제공업소,국민건강증진법 제9조,,100000,052-209-4131,"울산광역시 동구 명덕5길 4, 1층 (서부동)","울산광역시 동구 명덕5길 4, 1층 (서부동)",울산광역시 동구,35.5237319,129.4323183,2019-09-18
"방어게임장",시설 실내,울산광역시,동구,게임제공업소,국민건강증진법 제9조,,100000,052-209-4131,"울산광역시 동구 명덕6길 24, 2층 (서부동)","울산광역시 동구 명덕6길 24, 2층 (서부동)",울산광역시 동구,35.5238974,129.4318108,2019-09-18
"배트맨PC ZONE",시설 실내,울산광역시,동구,게임제공업소,국민건강증진법 제9조,,100000,052-209-4131,"울산광역시 동구 명덕7길 15, 1층 (서부동, 서부동우편취급국)","울산광역시 동구 명덕7길 15, 1층 (서부동, 서부동우편취급국)",울산광역시 동구,35.5236311,129.4305581,2019-09-18
"보스피시방",시설 실내,울산광역시,동구,게임제공업소,국민건강증진법 제9조,,100000,052-209-4131,"울산광역시 동구 문재2길 71, 2층 (방어동)","울산광역시 동구 문재2길 71, 2층 (방어동)",울산광역시 동구,35.4857014,129.4193022,2019-09-18
"봉봉게임랜드",시설 실내,울산광역시,동구,게임제공업소,국민건강증진법 제9조,,100000,052-209-4131,울산광역시 동구 문재5길 54 (방어동),울산광역시 동구 문재5길 54 (방어동),울산광역시 동구,35.4869134,129.4170226,2019-09-18
"빅스타게임랜드",시설 실내,울산광역시,동구,게임제공업소,국민건강증진법 제9조,,100000,052-209-4131,"울산광역시 동구 문재8길 10, 1층 (방어동)","울산광역시 동구 문재8길 10, 1층 (방어동)",울산광역시 동구,35.4843836,129.4190047,2019-09-18
"뽀꼬뽀끼",시설 실내,울산광역시,동구,게임제공업소,국민건강증진법 제9조,,100000,052-209-4131,"울산광역시 동구 문재로 16, 1층 (방어동)","울산광역시 동구 문재로 16, 1층 (방어동)",울산광역시 동구,35.4878963,129.4170575,2019-09-18
"뽑고뽑고 인형뽑기",시설 실내,울산광역시,동구,게임제공업소,국민건강증진법 제9조,,100000,052-209-4131,"울산광역시 동구 문재로 45, 102호 (방어동)","울산광역시 동구 문재로 45, 102호 (방어동)",울산광역시 동구,35.48622399,129.419629,2019-09-18
"뽑기세상",시설 실내,울산광역시,동구,게임제공업소,국민건강증진법 제9조,,100000,052-209-4131,"울산광역시 동구 문재로 56, 1층 (방어동)","울산광역시 동구 문재로 56, 1층 (방어동)",울산광역시 동구,35.4854614,129.4202457,2019-09-18
"뽑기짱",시설 실내,울산광역시,동구,게임제공업소,국민건강증진법 제9조,,100000,052-209-4131,울산광역시 동구 문현6길 13 (방어동),울산광역시 동구 문현6길 13 (방어동),울산광역시 동구,35.4854869,129.4120067,2019-09-18
"뽑기짱 방어점",시설 실내,울산광역시,동구,게임제공업소,국민건강증진법 제9조,,100000,052-209-4131,"울산광역시 동구 문현로 105-1, 2, 3층 (방어동)","울산광역시 동구 문현로 105-1, 2, 3층 (방어동)",울산광역시 동구,35.47922941,129.410752,2019-09-18
"뽑기짱 전하점",시설 실내,울산광역시,동구,게임제공업소,국민건강증진법 제9조,,100000,052-209-4131,"울산광역시 동구 문현로 107, 2층 (방어동)","울산광역시 동구 문현로 107, 2층 (방어동)",울산광역시 동구,35.4791277,129.4107396,2019-09-18
"선스타",시설 실내,울산광역시,동구,게임제공업소,국민건강증진법 제9조,,100000,052-209-4131,"울산광역시 동구 문현로 109, 2층 (방어동)","울산광역시 동구 문현로 109, 2층 (방어동)",울산광역시 동구,35.4789915,129.4107472,2019-09-18
"스마트PC방",시설 실내,울산광역시,동구,게임제공업소,국민건강증진법 제9조,,100000,052-209-4131,"울산광역시 동구 문현로 61, 2층 (방어동)","울산광역시 동구 문현로 61, 2층 (방어동)",울산광역시 동구,35.4830482,129.4124569,2019-09-18
"스카이 PC Net",시설 실내,울산광역시,동구,게임제공업소,국민건강증진법 제9조,,100000,052-209-4131,"울산광역시 동구 미포1길 46-17, 2층 (동부동)","울산광역시 동구 미포1길 46-17, 2층 (동부동)",울산광역시 동구,35.5417933,129.4290853,2019-09-18
"스타게임랜드",시설 실내,울산광역시,동구,게임제공업소,국민건강증진법 제9조,,100000,052-209-4131,"울산광역시 동구 바드래5길 22, 3층 (전하동)","울산광역시 동구 바드래5길 22, 3층 (전하동)",울산광역시 동구,35.5169482,129.4316786,2019-09-18
"스타덤 PC방 울산서부점",시설 실내,울산광역시,동구,게임제공업소,국민건강증진법 제9조,,100000,052-209-4131,"울산광역시 동구 방어진순환도로 1119, 지하1층 (서부동)","울산광역시 동구 방어진순환도로 1119, 지하1층 (서부동)",울산광역시 동구,35.5390376,129.4262356,2019-09-18
"스펀지PC방",시설 실내,울산광역시,동구,게임제공업소,국민건강증진법 제9조,,100000,052-209-4131,"울산광역시 동구 방어진순환도로 1126, 1층 (서부동)","울산광역시 동구 방어진순환도로 1126, 1층 (서부동)",울산광역시 동구,35.5395946,129.4259245,2019-09-18
"승승PC",시설 실내,울산광역시,동구,게임제공업소,국민건강증진법 제9조,,100000,052-209-4131,울산광역시 동구 방어진순환도로 1141 (서부동),울산광역시 동구 방어진순환도로 1141 (서부동),울산광역시 동구,35.5392925,129.4242674,2019-09-18
"시즌아이PC방 울산방어동점",시설 실내,울산광역시,동구,게임제공업소,국민건강증진법 제9조,,100000,052-209-4131,울산광역시 동구 방어진순환도로 456,울산광역시 동구 방어진순환도로 456,울산광역시 동구,35.487091,129.4173364,2019-09-18
"아이센스PC 화정점",시설 실내,울산광역시,동구,게임제공업소,국민건강증진법 제9조,,100000,052-209-4131,울산광역시 동구 방어진순환도로 456(방어동),울산광역시 동구 방어진순환도로 456(방어동),울산광역시 동구,35.487091,129.4173364,2019-09-18
"아이센스PC방 산록마을점",시설 실내,울산광역시,동구,게임제공업소,국민건강증진법 제9조,,100000,052-209-4131,"울산광역시 동구 방어진순환도로 456, 지하1층","울산광역시 동구 방어진순환도로 456, 지하1층",울산광역시 동구,35.487091,129.4173364,2019-09-18
"아이스짱 & 뽑기짱",시설 실내,울산광역시,동구,게임제공업소,국민건강증진법 제9조,,100000,052-209-4131,울산광역시 동구 방어진순환도로 606 (화정동),울산광역시 동구 방어진순환도로 606 (화정동),울산광역시 동구,35.4958002,129.4278073,2019-09-18
"아쿠아PC2호점",시설 실내,울산광역시,동구,게임제공업소,국민건강증진법 제9조,,100000,052-209-4131,"울산광역시 동구 방어진순환도로 607, 1층 (화정동)","울산광역시 동구 방어진순환도로 607, 1층 (화정동)",울산광역시 동구,35.4960523,129.427221,2019-09-18
"알파고PC방",시설 실내,울산광역시,동구,게임제공업소,국민건강증진법 제9조,,100000,052-209-4131,"울산광역시 동구 방어진순환도로 633, 지하1층 (일산동)","울산광역시 동구 방어진순환도로 633, 지하1층 (일산동)",울산광역시 동구,35.49836246,129.4277192,2019-09-18
"애플PC서부점",시설 실내,울산광역시,동구,게임제공업소,국민건강증진법 제9조,,100000,052-209-4131,"울산광역시 동구 방어진순환도로 647, 2층 (일산동)","울산광역시 동구 방어진순환도로 647, 2층 (일산동)",울산광역시 동구,35.4995448,129.4281293,2019-09-18
"오렌지 PC방",시설 실내,울산광역시,동구,게임제공업소,국민건강증진법 제9조,,100000,052-209-4131,"울산광역시 동구 방어진순환도로 652, A동 3층 304호 (일산동)","울산광역시 동구 방어진순환도로 652, A동 3층 304호 (일산동)",울산광역시 동구,35.4997996,129.4293738,2019-09-18
"오렌지PC",시설 실내,울산광역시,동구,게임제공업소,국민건강증진법 제9조,,100000,052-209-4131,"울산광역시 동구 방어진순환도로 652, D동 1층 103호 (일산동)","울산광역시 동구 방어진순환도로 652, D동 1층 103호 (일산동)",울산광역시 동구,35.4997996,129.4293738,2019-09-18
"오렌지PC 화정점",시설 실내,울산광역시,동구,게임제공업소,국민건강증진법 제9조,,100000,052-209-4131,울산광역시 동구 방어진순환도로 673(일산동),울산광역시 동구 방어진순환도로 673(일산동),울산광역시 동구,35.5018947,129.4287264,2019-09-18
"오렌지PC(명덕점)",시설 실내,울산광역시,동구,게임제공업소,국민건강증진법 제9조,,100000,052-209-4131,"울산광역시 동구 방어진순환도로 691, 2층 (일산동)","울산광역시 동구 방어진순환도로 691, 2층 (일산동)",울산광역시 동구,35.5034354,129.4291461,2019-09-18
"오렌지PC(방어동)",시설 실내,울산광역시,동구,게임제공업소,국민건강증진법 제9조,,100000,052-209-4131,"울산광역시 동구 방어진순환도로 705-1, 1층 (일산동)","울산광역시 동구 방어진순환도로 705-1, 1층 (일산동)",울산광역시 동구,35.5047001,129.429206,2019-09-18
"오렌지PC(화정동)",시설 실내,울산광역시,동구,게임제공업소,국민건강증진법 제9조,,100000,052-209-4131,"울산광역시 동구 방어진순환도로 783, 4층 (전하동)","울산광역시 동구 방어진순환도로 783, 4층 (전하동)",울산광역시 동구,35.5115656,129.4303947,2019-09-18
"와PC",시설 실내,울산광역시,동구,게임제공업소,국민건강증진법 제9조,,100000,052-209-4131,울산광역시 동구 방어진순환도로 785,울산광역시 동구 방어진순환도로 785,울산광역시 동구,35.5118008,129.4303228,2019-09-18
"와PC (전하점)",시설 실내,울산광역시,동구,게임제공업소,국민건강증진법 제9조,,100000,052-209-4131,"울산광역시 동구 방어진순환도로 785, 스타타워 801호 (전하동)","울산광역시 동구 방어진순환도로 785, 스타타워 801호 (전하동)",울산광역시 동구,35.5118008,129.4303228,2019-09-18
"이게PC방",시설 실내,울산광역시,동구,게임제공업소,국민건강증진법 제9조,,100000,052-209-4131,"울산광역시 동구 방어진순환도로 785, 스타타워 801호(전하동)","울산광역시 동구 방어진순환도로 785, 스타타워 801호(전하동)",울산광역시 동구,35.5118008,129.4303228,2019-09-18
"이게PC방이다 남목점",시설 실내,울산광역시,동구,게임제공업소,국민건강증진법 제9조,,100000,052-209-4131,"울산광역시 동구 방어진순환도로 793, 3층 (전하동)","울산광역시 동구 방어진순환도로 793, 3층 (전하동)",울산광역시 동구,35.5125296,129.4305816,2019-09-18
"인터쿨PC방",시설 실내,울산광역시,동구,게임제공업소,국민건강증진법 제9조,,100000,052-209-4131,"울산광역시 동구 방어진순환도로 833, 2층 (전하동)","울산광역시 동구 방어진순환도로 833, 2층 (전하동)",울산광역시 동구,35.5158307,129.4321989,2019-09-18
"인형뽑기",시설 실내,울산광역시,동구,게임제공업소,국민건강증진법 제9조,,100000,052-209-4131,"울산광역시 동구 방어진순환도로 919, 3층 (서부동)","울산광역시 동구 방어진순환도로 919, 3층 (서부동)",울산광역시 동구,35.5232318,129.432606,2019-09-18
"임페리얼PC방",시설 실내,울산광역시,동구,게임제공업소,국민건강증진법 제9조,,100000,052-209-4131,"울산광역시 동구 방어진순환도로 941, 4층 (서부동)","울산광역시 동구 방어진순환도로 941, 4층 (서부동)",울산광역시 동구,35.52506387,129.4328177,2019-09-18
"제닉스아레나PC 남목점",시설 실내,울산광역시,동구,게임제공업소,국민건강증진법 제9조,,100000,052-209-4131,"울산광역시 동구 방어진순환도로 945, 2층 (서부동)","울산광역시 동구 방어진순환도로 945, 2층 (서부동)",울산광역시 동구,35.525523,129.4329047,2019-09-18
"짬짜미코인노래타임",시설 실내,울산광역시,동구,게임제공업소,국민건강증진법 제9조,,100000,052-209-4131,"울산광역시 동구 번덕8길 105, 2,3층 (일산동)","울산광역시 동구 번덕8길 105, 2,3층 (일산동)",울산광역시 동구,35.5016032,129.4277624,2019-09-18
"차칸 PC",시설 실내,울산광역시,동구,게임제공업소,국민건강증진법 제9조,,100000,052-209-4131,"울산광역시 동구 번덕8길 120, 2층 (일산동)","울산광역시 동구 번덕8길 120, 2층 (일산동)",울산광역시 동구,35.502281,129.4279264,2019-09-18
"찬스PC",시설 실내,울산광역시,동구,게임제공업소,국민건강증진법 제9조,,100000,052-209-4131,"울산광역시 동구 번덕8길 82, 지하1층 (일산동)","울산광역시 동구 번덕8길 82, 지하1층 (일산동)",울산광역시 동구,35.5006501,129.4276452,2019-09-18
"추억의뽑기방",시설 실내,울산광역시,동구,게임제공업소,국민건강증진법 제9조,,100000,052-209-4131,"울산광역시 동구 봉수로 315, 3층 (전하동)","울산광역시 동구 봉수로 315, 3층 (전하동)",울산광역시 동구,35.5143602,129.423721,2019-09-18
"캐치미",시설 실내,울산광역시,동구,게임제공업소,국민건강증진법 제9조,,100000,052-209-4131,"울산광역시 동구 봉수로 329, 1층 (전하동)","울산광역시 동구 봉수로 329, 1층 (전하동)",울산광역시 동구,35.5151807,129.424075,2019-09-18
"쿨PC",시설 실내,울산광역시,동구,게임제공업소,국민건강증진법 제9조,,100000,052-209-4131,"울산광역시 동구 북진1길 12, 1층 (방어동)","울산광역시 동구 북진1길 12, 1층 (방어동)",울산광역시 동구,35.48650572,129.4197784,2019-09-18
"킹게임랜드",시설 실내,울산광역시,동구,게임제공업소,국민건강증진법 제9조,,100000,052-209-4131,"울산광역시 동구 북진3길 23, 2층 (방어동)","울산광역시 동구 북진3길 23, 2층 (방어동)",울산광역시 동구,35.48630438,129.4217289,2019-09-18
"킹PC",시설 실내,울산광역시,동구,게임제공업소,국민건강증진법 제9조,,100000,052-209-4131,울산광역시 동구 북진5길 11 (방어동),울산광역시 동구 북진5길 11 (방어동),울산광역시 동구,35.4855684,129.4217991,2019-09-18
"타이탄PC존",시설 실내,울산광역시,동구,게임제공업소,국민건강증진법 제9조,,100000,052-209-4131,울산광역시 동구 북진5길 25(방어동),울산광역시 동구 북진5길 25(방어동),울산광역시 동구,35.4864164,129.4213501,2019-09-18
"태풍게임랜드",시설 실내,울산광역시,동구,게임제공업소,국민건강증진법 제9조,,100000,052-209-4131,"울산광역시 동구 슬도로 25, 1층 (방어동)","울산광역시 동구 슬도로 25, 1층 (방어동)",울산광역시 동구,35.48744662,129.428554,2019-09-18
"톡게임랜드",시설 실내,울산광역시,동구,게임제공업소,국민건강증진법 제9조,,100000,052-209-4131,"울산광역시 동구 월봉10길 9, 1층 (화정동)","울산광역시 동구 월봉10길 9, 1층 (화정동)",울산광역시 동구,35.4946987,129.420022,2019-09-18
"티오 피시존",시설 실내,울산광역시,동구,게임제공업소,국민건강증진법 제9조,,100000,052-209-4131,"울산광역시 동구 월봉10길 9, 2층 (화정동)","울산광역시 동구 월봉10길 9, 2층 (화정동)",울산광역시 동구,35.4946987,129.420023,2019-09-18
"팝스멀티방 울산점",시설 실내,울산광역시,동구,게임제공업소,국민건강증진법 제9조,,100000,052-209-4131,울산광역시 동구 월봉11길 24 (화정동),울산광역시 동구 월봉11길 24 (화정동),울산광역시 동구,35.4938371,129.4207094,2019-09-18
"포키포키",시설 실내,울산광역시,동구,게임제공업소,국민건강증진법 제9조,,100000,052-209-4131,울산광역시 동구 월봉4길 69(방어동),울산광역시 동구 월봉4길 69(방어동),울산광역시 동구,35.489972,129.420469,2019-09-18
"플러스PC방",시설 실내,울산광역시,동구,게임제공업소,국민건강증진법 제9조,,100000,052-209-4131,"울산광역시 동구 월봉로 56, 2층 (화정동)","울산광역시 동구 월봉로 56, 2층 (화정동)",울산광역시 동구,35.4941265,129.4243756,2019-09-18
"플레이샵",시설 실내,울산광역시,동구,게임제공업소,국민건강증진법 제9조,,100000,052-209-4131,"울산광역시 동구 일산진1길 24, 1층 (일산동)","울산광역시 동구 일산진1길 24, 1층 (일산동)",울산광역시 동구,35.50157593,129.4310114,2019-09-18
"픽미픽미",시설 실내,울산광역시,동구,게임제공업소,국민건강증진법 제9조,,100000,052-209-4131,"울산광역시 동구 전하로 13, 1층 106호 (전하동, 대성상가아파트)","울산광역시 동구 전하로 13, 1층 106호 (전하동, 대성상가아파트)",울산광역시 동구,35.5122948,129.429173,2019-09-18
"하나게임랜드",시설 실내,울산광역시,동구,게임제공업소,국민건강증진법 제9조,,100000,052-209-4131,울산광역시 동구 전하로 14,울산광역시 동구 전하로 14,울산광역시 동구,35.5125349,129.4292236,2019-09-18
"하드캐리PC방",시설 실내,울산광역시,동구,게임제공업소,국민건강증진법 제9조,,100000,052-209-4131,"울산광역시 동구 전하로 14, 3.4층 (전하동)","울산광역시 동구 전하로 14, 3.4층 (전하동)",울산광역시 동구,35.5125349,129.4292236,2019-09-18
"한PC",시설 실내,울산광역시,동구,게임제공업소,국민건강증진법 제9조,,100000,052-209-4131,"울산광역시 동구 전하로 18, 지하1층 (전하동)","울산광역시 동구 전하로 18, 지하1층 (전하동)",울산광역시 동구,35.5125834,129.4288563,2019-09-18
"해적게임랜드",시설 실내,울산광역시,동구,게임제공업소,국민건강증진법 제9조,,100000,052-209-4131,"울산광역시 동구 전하로 2, 지하1층 (전하동)","울산광역시 동구 전하로 2, 지하1층 (전하동)",울산광역시 동구,35.512368,129.4305269,2019-09-18
"행운 게임랜드",시설 실내,울산광역시,동구,게임제공업소,국민건강증진법 제9조,,100000,052-209-4131,"울산광역시 동구 전하로 3, 3층 (전하동, 우리은행동울산지점)","울산광역시 동구 전하로 3, 3층 (전하동, 우리은행동울산지점)",울산광역시 동구,35.508801,129.4265717,2019-09-18
"행운게임랜드",시설 실내,울산광역시,동구,게임제공업소,국민건강증진법 제9조,,100000,052-209-4131,"울산광역시 동구 전하로 30, 2층 (전하동)","울산광역시 동구 전하로 30, 2층 (전하동)",울산광역시 동구,35.5126868,129.427349,2019-09-18
"헌터PC방 울산전하점",시설 실내,울산광역시,동구,게임제공업소,국민건강증진법 제9조,,100000,052-209-4131,"울산광역시 동구 전하로 33, 104동 1층 108호 (전하동, 한라한빛타운 상가)","울산광역시 동구 전하로 33, 104동 1층 108호 (전하동, 한라한빛타운 상가)",울산광역시 동구,35.51249615,129.4270957,2019-09-18
"헬로우VR",시설 실내,울산광역시,동구,게임제공업소,국민건강증진법 제9조,,100000,052-209-4131,"울산광역시 동구 전하로 40-1, 2층 (전하동)","울산광역시 동구 전하로 40-1, 2층 (전하동)",울산광역시 동구,35.5128077,129.4262014,2019-09-18
"현대게임랜드",시설 실내,울산광역시,동구,게임제공업소,국민건강증진법 제9조,,100000,052-209-4131,"울산광역시 동구 중진길 13, 2층 (방어동)","울산광역시 동구 중진길 13, 2층 (방어동)",울산광역시 동구,35.4847821,129.4231308,2019-09-18
"환타지PC",시설 실내,울산광역시,동구,게임제공업소,국민건강증진법 제9조,,100000,052-209-4131,"울산광역시 동구 중진길 19, 3층 (방어동)","울산광역시 동구 중진길 19, 3층 (방어동)",울산광역시 동구,35.4845039,129.4233286,2019-09-18
KOREA-PC존,시설 실내,울산광역시,동구,게임제공업소,국민건강증진법 제9조,,100000,052-209-4131,"울산광역시 동구 진성13길 90, 1층 (전하동)","울산광역시 동구 진성13길 90, 1층 (전하동)",울산광역시 동구,35.5103864,129.4268464,2019-09-18
Nio PC방,시설 실내,울산광역시,동구,게임제공업소,국민건강증진법 제9조,,100000,052-209-4131,"울산광역시 동구 진성14길 63, 2층 (전하동)","울산광역시 동구 진성14길 63, 2층 (전하동)",울산광역시 동구,35.508143,129.425511,2019-09-18
NU PC,시설 실내,울산광역시,동구,게임제공업소,국민건강증진법 제9조,,100000,052-209-4131,울산광역시 동구 진성14길 72 (전하동),울산광역시 동구 진성14길 72 (전하동),울산광역시 동구,35.508493,129.425831,2019-09-18
OX Park PC 방어점,시설 실내,울산광역시,동구,게임제공업소,국민건강증진법 제9조,,100000,052-209-4131,"울산광역시 동구 진성14길 77, 지하1층 (전하동)","울산광역시 동구 진성14길 77, 지하1층 (전하동)",울산광역시 동구,35.5088339,129.425452,2019-09-18
PC브라더스,시설 실내,울산광역시,동구,게임제공업소,국민건강증진법 제9조,,100000,052-209-4131,울산광역시 동구 진성2길 41 (전하동),울산광역시 동구 진성2길 41 (전하동),울산광역시 동구,35.5113974,129.4275521,2019-09-18
PC팩토리(전하동),시설 실내,울산광역시,동구,게임제공업소,국민건강증진법 제9조,,100000,052-209-4131,"울산광역시 동구 진성3길 14, 106호 (전하동, 해븐하늘빛)","울산광역시 동구 진성3길 14, 106호 (전하동, 해븐하늘빛)",울산광역시 동구,35.5101752,129.4293802,2019-09-18
TOY인형뽑기,시설 실내,울산광역시,동구,게임제공업소,국민건강증진법 제9조,,100000,052-209-4131,울산광역시 동구 진성3길 45(전하동),울산광역시 동구 진성3길 45(전하동),울산광역시 동구,35.5101836,129.4270743,2019-09-18
VIP게임랜드,시설 실내,울산광역시,동구,게임제공업소,국민건강증진법 제9조,,100000,052-209-4131,"울산광역시 동구 진성3길 45, 2층","울산광역시 동구 진성3길 45, 2층",울산광역시 동구,35.5101836,129.4270743,2019-09-18
"미소게임장",시설 실내,울산광역시,동구,게임제공업소,국민건강증진법 제9조,,100000,052-209-4131,"울산광역시 동구 진성3길 45, 2층 (전하동)","울산광역시 동구 진성3길 45, 2층 (전하동)",울산광역시 동구,35.5101836,129.4270743,2019-09-18
"한게임랜드",시설 실내,울산광역시,동구,게임제공업소,국민건강증진법 제9조,,100000,052-209-4131,"울산광역시 동구 진성3길 45, 2층 (전하동)","울산광역시 동구 진성3길 45, 2층 (전하동)",울산광역시 동구,35.5101836,129.4270743,2019-09-18
"황금PC",시설 실내,울산광역시,동구,게임제공업소,국민건강증진법 제9조,,100000,052-209-4131,"울산광역시 동구 진성8길 133, 3층 (전하동)","울산광역시 동구 진성8길 133, 3층 (전하동)",울산광역시 동구,35.5114048,129.4297448,2019-09-18
"오션스카이",시설 실내,울산광역시,동구,게임제공업소,국민건강증진법 제9조,,100000,052-209-4131,울산광역시 동구 학문로 5 (일산동),울산광역시 동구 학문로 5 (일산동),울산광역시 동구,35.502499,129.428308,2019-09-18
"로얄게임랜드",시설 실내,울산광역시,동구,게임제공업소,국민건강증진법 제9조,,100000,052-209-4131,"울산광역시 동구 해수욕장10길 8, 1층 (일산동)","울산광역시 동구 해수욕장10길 8, 1층 (일산동)",울산광역시 동구,35.4957213,129.430127,2019-09-18
"플러스PC",시설 실내,울산광역시,동구,게임제공업소,국민건강증진법 제9조,,100000,052-209-4131,"울산광역시 동구 해수욕장10길 8, 1층 (일산동)","울산광역시 동구 해수욕장10길 8, 1층 (일산동)",울산광역시 동구,35.4957213,129.430127,2019-09-18
"헌터PC방 울산전하점",시설 실내,울산광역시,동구,게임제공업소,국민건강증진법 제9조,,100000,052-209-4131,울산광역시 동구 해수욕장길 8 (화정동),울산광역시 동구 해수욕장길 8 (화정동),울산광역시 동구,35.4965351,129.4283868,2019-09-18
"로얄게임랜드1",시설 실내,울산광역시,동구,게임제공업소,국민건강증진법 제9조,,100000,052-209-4131,"울산광역시 동구 화문로 17, 1층 (방어동)","울산광역시 동구 화문로 17, 1층 (방어동)",울산광역시 동구,35.4854703,129.4115778,2019-09-18
"아이조아PC방",시설 실내,울산광역시,동구,게임제공업소,국민건강증진법 제9조,,100000,052-209-4131,"울산광역시 동구 화정2길 9, 1층 (화정동, 리코타운)","울산광역시 동구 화정2길 9, 1층 (화정동, 리코타운)",울산광역시 동구,35.495958,129.4267323,2019-09-18
"한빛게임랜드",시설 실내,울산광역시,동구,게임제공업소,국민건강증진법 제9조,,100000,052-209-4131,"울산광역시 동구 화진길 117, 1층 (화정동)","울산광역시 동구 화진길 117, 1층 (화정동)",울산광역시 동구,35.49359034,129.4221725,2019-09-18
"이개PC방이다",시설 실내,울산광역시,동구,게임제공업소,국민건강증진법 제9조,,100000,052-209-4131,"울산광역시 동구 화진길 13, 1층 (방어동, 이루곶빌딩)","울산광역시 동구 화진길 13, 1층 (방어동, 이루곶빌딩)",울산광역시 동구,35.488612,129.421774,2019-09-18
"골드게임장",시설 실내,울산광역시,동구,게임제공업소,국민건강증진법 제9조,,100000,052-209-4131,"울산광역시 동구 화진길 63, 2층 (화정동)","울산광역시 동구 화진길 63, 2층 (화정동)",울산광역시 동구,35.4910161,129.4215436,2019-09-18
"리얼야구존",시설 실내,울산광역시,동구,골프연습장업,국민건강증진법 제9조,,100000,052-209-4131,울산광역시 동구 방어진순환도롳652,울산광역시 동구 방어진순환도롳652,울산광역시 동구,35.516782,129.431909,2019-09-18
"한마음예술관",시설 실내,울산광역시,동구,공연장,국민건강증진법 제9조,,100000,052-209-4131,울산광역시 동구 명덕로 10(서부동),울산광역시 동구 명덕로 10(서부동),울산광역시 동구,35.5229511,129.4309727,2019-09-18
"현대예술관 대공연장",시설 실내,울산광역시,동구,공연장,국민건강증진법 제9조,,100000,052-209-4131,울산광역시 동구 바드래1길 30(전하동),울산광역시 동구 바드래1길 30(전하동),울산광역시 동구,35.51873825,129.4271118,2019-09-18
"굿모닝 호텔",시설 실내,울산광역시,동구,관광숙박업소,국민건강증진법 제9조,,100000,052-209-4131,울산광역시 동구 바드래1길 15 (전하동),울산광역시 동구 바드래1길 15 (전하동),울산광역시 동구,35.5174223,129.4306177,2019-09-18
"주식회사 라한호텔(울산)",시설 실내,울산광역시,동구,관광숙박업소,국민건강증진법 제9조,,100000,052-209-4131,울산광역시 동구 방어진순환도로 875 (전하동),울산광역시 동구 방어진순환도로 875 (전하동),울산광역시 동구,35.51965154,129.4302605,2019-09-18
"꽃바위아이파크아파트",시설실내 등,울산광역시,동구,금연아파트,국민건강증진법 제9조,,100000,052-209-4131,울산광역시 동구 진성15길 55,울산광역시 동구 진성15길 55,울산광역시 동구,35.506321,129.420353,2019-09-18
"벽산우진아파트",시설실내 등,울산광역시,동구,금연아파트,국민건강증진법 제9조,,100000,052-209-4131,울산광역시 동구 화잠9길 45,울산광역시 동구 화잠9길 45,울산광역시 동구,35.4836997,129.4091435,2019-09-18
"꽃바위유치원2",해당부지,울산광역시,동구,놀이제공영업소,국민건강증진법 제9조,,100000,052-209-4131,울산광역시 동구 남목13길 27,울산광역시 동구 남목13길 27,울산광역시 동구,35.5446995,129.4290464,2019-09-18
"화암자연과학유치원2",해당부지,울산광역시,동구,놀이제공영업소,국민건강증진법 제9조,,100000,052-209-4131,울산광역시 동구 남목19길 9,울산광역시 동구 남목19길 9,울산광역시 동구,35.544315,129.4285643,2019-09-18
"환희지유치원2",해당부지,울산광역시,동구,놀이제공영업소,국민건강증진법 제9조,,100000,052-209-4131,울산광역시 동구 문현2길 41,울산광역시 동구 문현2길 41,울산광역시 동구,35.4874769,129.4112437,2019-09-18
"현대유치원",해당부지,울산광역시,동구,놀이제공영업소,국민건강증진법 제9조,,100000,052-209-4131,울산광역시 동구 방어진순환도로 624,울산광역시 동구 방어진순환도로 624,울산광역시 동구,35.4974518,129.428047,2019-09-18
"선미유치원2",해당부지,울산광역시,동구,놀이제공영업소,국민건강증진법 제9조,,100000,052-209-4131,울산광역시 동구 북진5길 6,울산광역시 동구 북진5길 6,울산광역시 동구,35.4856581,129.4225214,2019-09-18
"룸비니유치원2",해당부지,울산광역시,동구,놀이제공영업소,국민건강증진법 제9조,,100000,052-209-4131,울산광역시 동구 안산로 50-1,울산광역시 동구 안산로 50-1,울산광역시 동구,35.542869,129.433015,2019-09-18
"공룡자연유치원2",해당부지,울산광역시,동구,놀이제공영업소,국민건강증진법 제9조,,100000,052-209-4131,울산광역시 동구 월봉7가길 12,울산광역시 동구 월봉7가길 12,울산광역시 동구,35.4915325,129.4193298,2019-09-18
"꽃동산어린이집2",해당부지,울산광역시,동구,놀이제공영업소,국민건강증진법 제9조,,100000,052-209-4131,울산광역시 동구 월봉8길 30,울산광역시 동구 월봉8길 30,울산광역시 동구,35.4929932,129.4201942,2019-09-18
"동그란어린이집2",해당부지,울산광역시,동구,놀이제공영업소,국민건강증진법 제9조,,100000,052-209-4131,울산광역시 동구 일산진5길 32,울산광역시 동구 일산진5길 32,울산광역시 동구,35.4988222,129.4294082,2019-09-18
"신빛나어린이집2",해당부지,울산광역시,동구,놀이제공영업소,국민건강증진법 제9조,,100000,052-209-4131,울산광역시 동구 진성12길 80,울산광역시 동구 진성12길 80,울산광역시 동구,35.5083994,129.4272731,2019-09-18
"동은어린이집2",해당부지,울산광역시,동구,놀이제공영업소,국민건강증진법 제9조,,100000,052-209-4131,울산광역시 동구 진성13길 101,울산광역시 동구 진성13길 101,울산광역시 동구,35.5110319,129.4265282,2019-09-18
"늘그림어린이집2",해당부지,울산광역시,동구,놀이제공영업소,국민건강증진법 제9조,,100000,052-209-4131,울산광역시 동구 진성6길 105,울산광역시 동구 진성6길 105,울산광역시 동구,35.5069283,129.4222549,2019-09-18
"샤브향1",해당부지,울산광역시,동구,놀이제공영업소,국민건강증진법 제9조,,100000,052-209-4131,울산광역시 동구 화잠7길 62,울산광역시 동구 화잠7길 62,울산광역시 동구,35.4842455,129.4115685,2019-09-18
"양미계향1",해당부지,울산광역시,동구,놀이제공영업소,국민건강증진법 제9조,,100000,052-209-4131,울산광역시 동구 화진1길 33,울산광역시 동구 화진1길 33,울산광역시 동구,35.4902482,129.4222353,2019-09-18
"키즈캐슬",해당부지,울산광역시,동구,놀이제공영업소,국민건강증진법 제9조,,100000,052-209-4131,울산광역시 동구 화진4길 102,울산광역시 동구 화진4길 102,울산광역시 동구,35.4884778,129.421187,2019-09-18
"현대백화점 울산동구점",시설 실내,울산광역시,동구,대규모 점포,국민건강증진법 제9조,,100000,052-209-4131,울산광역시 동구 방어진순환도로 637(일산동),울산광역시 동구 방어진순환도로 637(일산동),울산광역시 동구,35.4989324,129.4274814,2019-09-18
"홈플러스 울산동구점",시설 실내,울산광역시,동구,대규모 점포,국민건강증진법 제9조,,100000,052-209-4131,울산광역시 동구 방어진순환도로 899(서부동),울산광역시 동구 방어진순환도로 899(서부동),울산광역시 동구,35.5215064,129.4318003,2019-09-18
"꽃바위작은도서관",시설 실내,울산광역시,동구,도서관,국민건강증진법 제9조,,100000,052-209-4131,울산광역시 동구 봉수로 155(동구청소년문화의집 3층),울산광역시 동구 봉수로 155(동구청소년문화의집 3층),울산광역시 동구,35.5050862,129.4166463,2019-09-18
"꿈샘도서관",시설 실내,울산광역시,동구,도서관,국민건강증진법 제9조,,100000,052-209-4131,울산광역시 동구 진성4길 45(전하2동주민센터 1층),울산광역시 동구 진성4길 45(전하2동주민센터 1층),울산광역시 동구,35.5088419,129.426667,2019-09-18
"남목작은도서관",시설 실내,울산광역시,동구,도서관,국민건강증진법 제9조,,100000,052-209-4131,울산광역시 동구 꽃바위로 380,울산광역시 동구 꽃바위로 380,울산광역시 동구,35.489924,129.4264096,2019-09-18
"대왕암엘크루작은도서관",시설 실내,울산광역시,동구,도서관,국민건강증진법 제9조,,100000,052-209-4131,울산광역시 동구 남목18길 27,울산광역시 동구 남목18길 27,울산광역시 동구,35.54309802,129.4275064,2019-09-18
"더불어 숲",시설 실내,울산광역시,동구,도서관,국민건강증진법 제9조,,100000,052-209-4131,울산광역시 동구 녹수3길 47,울산광역시 동구 녹수3길 47,울산광역시 동구,35.5139433,129.4270416,2019-09-18
"로뎀나무 작은도서관",시설 실내,울산광역시,동구,도서관,국민건강증진법 제9조,,100000,052-209-4131,울산광역시 동구 대송로 140 (화정동주민센터 1층),울산광역시 동구 대송로 140 (화정동주민센터 1층),울산광역시 동구,35.4958797,129.4225969,2019-09-18
"맑은숲작은도서관",시설 실내,울산광역시,동구,도서관,국민건강증진법 제9조,,100000,052-209-4131,울산광역시 동구 대학길 40-1,울산광역시 동구 대학길 40-1,울산광역시 동구,35.4983907,129.4203046,2019-09-18
"명덕2차작은도서관",시설 실내,울산광역시,동구,도서관,국민건강증진법 제9조,,100000,052-209-4131,울산광역시 동구 동해안로 98,울산광역시 동구 동해안로 98,울산광역시 동구,35.54466629,129.4321311,2019-09-18
"바다가보이는 작은도서관",시설 실내,울산광역시,동구,도서관,국민건강증진법 제9조,,100000,052-209-4131,울산광역시 동구 등대4길 25,울산광역시 동구 등대4길 25,울산광역시 동구,35.4898578,129.4288221,2019-09-18
"상록수독서문화원",시설 실내,울산광역시,동구,도서관,국민건강증진법 제9조,,100000,052-209-4131,울산광역시 동구 등대4길 26,울산광역시 동구 등대4길 26,울산광역시 동구,35.48883585,129.4320508,2019-09-18
"서부징검다리작은도서관",시설 실내,울산광역시,동구,도서관,국민건강증진법 제9조,,100000,052-209-4131,울산광역시 동구 명덕6길 29,울산광역시 동구 명덕6길 29,울산광역시 동구,35.52433448,129.4314554,2019-09-18
"아우름쉼터 북카페",시설 실내,울산광역시,동구,도서관,국민건강증진법 제9조,,100000,052-209-4131,울산광역시 동구 명덕로70,울산광역시 동구 명덕로70,울산광역시 동구,35.5237592,129.4257469,2019-09-18
"온유작은도서관",시설 실내,울산광역시,동구,도서관,국민건강증진법 제9조,,100000,052-209-4131,울산광역시 동구 문재2나길 4,울산광역시 동구 문재2나길 4,울산광역시 동구,35.4858072,129.4157458,2019-09-18
"전하2동작은도서관",시설 실내,울산광역시,동구,도서관,국민건강증진법 제9조,,100000,052-209-4131,울산광역시 동구 문현3길 6(꽃바위문화관 1층),울산광역시 동구 문현3길 6(꽃바위문화관 1층),울산광역시 동구,35.4870786,129.4112334,2019-09-18
"전하작은도서관",시설 실내,울산광역시,동구,도서관,국민건강증진법 제9조,,100000,052-209-4131,울산광역시 동구 방어진순환도로 1170(남목1동주민센터 2층),울산광역시 동구 방어진순환도로 1170(남목1동주민센터 2층),울산광역시 동구,35.5391767,129.4205569,2019-09-18
"초록우산 북카페",시설 실내,울산광역시,동구,도서관,국민건강증진법 제9조,,100000,052-209-4131,울산광역시 동구 방어진순환도로 501,울산광역시 동구 방어진순환도로 501,울산광역시 동구,35.4881612,129.4223561,2019-09-18
"크레파스 작은도서관",시설 실내,울산광역시,동구,도서관,국민건강증진법 제9조,,100000,052-209-4131,울산광역시 동구 방어진순환도로 733,울산광역시 동구 방어진순환도로 733,울산광역시 동구,35.506835,129.4294599,2019-09-18
"푸르지오작은도서관",시설 실내,울산광역시,동구,도서관,국민건강증진법 제9조,,100000,052-209-4131,울산광역시 동구 방어진순환도로 995,울산광역시 동구 방어진순환도로 995,울산광역시 동구,35.52742906,129.4297368,2019-09-18
"해누리문고",시설 실내,울산광역시,동구,도서관,국민건강증진법 제9조,,100000,052-209-4131,울산광역시 동구 봉수로 250,울산광역시 동구 봉수로 250,울산광역시 동구,35.5091746,129.4216445,2019-09-18
"화정작은도서관",시설 실내,울산광역시,동구,도서관,국민건강증진법 제9조,,100000,052-209-4131,울산광역시 동구 월봉10길 14,울산광역시 동구 월봉10길 14,울산광역시 동구,35.49460321,129.4194749,2019-09-18
"휴(休) Book 사랑방",시설 실내,울산광역시,동구,도서관,국민건강증진법 제9조,,100000,052-209-4131,울산광역시 동구 진성8길 91(바드래문화관 1층),울산광역시 동구 진성8길 91(바드래문화관 1층),울산광역시 동구,35.5093691,129.4293383,2019-09-18
"대왕암공원",해당부지,울산광역시,동구,도시공원,울산광역시동구 금연 환경조성 및 간접흡연 피해방지 조례 제4조,,20000,052-209-4131,울산광역시 동구 동부동,울산광역시 동구 동부동,울산광역시 동구,35.483343,129.424052,2019-09-18
"쇠평공원",해당부지,울산광역시,동구,도시공원,울산광역시동구 금연 환경조성 및 간접흡연 피해방지 조례 제4조,,20000,052-209-4131,울산광역시 동구 등대로 99,울산광역시 동구 등대로 99,울산광역시 동구,35.491241,129.435628,2019-09-18
"쉼표만화방",시설 실내,울산광역시,동구,만화대여업소,국민건강증진법 제9조,,100000,052-209-4131,울산광역시 동구 대송1길 20,울산광역시 동구 대송1길 20,울산광역시 동구,35.4993685,129.4191657,2019-09-18
"엽아삼촌 만화방(실내 흡연시설)",시설 실내,울산광역시,동구,만화대여업소,국민건강증진법 제9조,,100000,052-209-4131,울산광역시 동구 전하로 13,울산광역시 동구 전하로 13,울산광역시 동구,35.5122948,129.429173,2019-09-18
"투니만화카페",시설 실내,울산광역시,동구,만화대여업소,국민건강증진법 제9조,,100000,052-209-4131,울산광역시 동구 전하로 16-1,울산광역시 동구 전하로 16-1,울산광역시 동구,35.5125537,129.4290012,2019-09-18
"화산만화방(실내 흡연시설)",시설 실내,울산광역시,동구,만화대여업소,국민건강증진법 제9조,,100000,052-209-4131,울산광역시 동구 문현로 109,울산광역시 동구 문현로 109,울산광역시 동구,35.4789915,129.410747,2019-09-18
"굿모닝사우나",시설 실내,울산광역시,동구,목욕장,국민건강증진법 제9조,,100000,052-209-4131,울산광역시 동구 남목18길 8 (동부동),울산광역시 동구 남목18길 8 (동부동),울산광역시 동구,35.5427086,129.4286693,2019-09-18
"뉴동천탕",시설 실내,울산광역시,동구,목욕장,국민건강증진법 제9조,,100000,052-209-4131,울산광역시 동구 남진길 35 (방어동),울산광역시 동구 남진길 35 (방어동),울산광역시 동구,35.481392,129.417138,2019-09-18
"대송탕",시설 실내,울산광역시,동구,목욕장,국민건강증진법 제9조,,100000,052-209-4131,"울산광역시 동구 녹수8길 60, 1,3층 (전하동)","울산광역시 동구 녹수8길 60, 1,3층 (전하동)",울산광역시 동구,35.515156,129.4312631,2019-09-18
"대왕스파랜드",시설 실내,울산광역시,동구,목욕장,국민건강증진법 제9조,,100000,052-209-4131,울산광역시 동구 대송1길 50 (화정동),울산광역시 동구 대송1길 50 (화정동),울산광역시 동구,35.4992184,129.4211249,2019-09-18
"동부목욕탕",시설 실내,울산광역시,동구,목욕장,국민건강증진법 제9조,,100000,052-209-4131,울산광역시 동구 대송2길 21 (화정동),울산광역시 동구 대송2길 21 (화정동),울산광역시 동구,35.5006377,129.4188419,2019-09-18
"동서빌사우나",시설 실내,울산광역시,동구,목욕장,국민건강증진법 제9조,,100000,052-209-4131,울산광역시 동구 대학길 146 (화정동),울산광역시 동구 대학길 146 (화정동),울산광역시 동구,35.4973907,129.425391,2019-09-18
"라한호텔 울산 사우나",시설 실내,울산광역시,동구,목욕장,국민건강증진법 제9조,,100000,052-209-4131,울산광역시 동구 동진3길 11 (방어동),울산광역시 동구 동진3길 11 (방어동),울산광역시 동구,35.4872866,129.4269647,2019-09-18
"명덕탕",시설 실내,울산광역시,동구,목욕장,국민건강증진법 제9조,,100000,052-209-4131,울산광역시 동구 동진로 4 (방어동),울산광역시 동구 동진로 4 (방어동),울산광역시 동구,35.4867066,129.4256276,2019-09-18
"무지개탕",시설 실내,울산광역시,동구,목욕장,국민건강증진법 제9조,,100000,052-209-4131,울산광역시 동구 동해안로 35 (동부동),울산광역시 동구 동해안로 35 (동부동),울산광역시 동구,35.5424462,129.4269245,2019-09-18
"문현탕",시설 실내,울산광역시,동구,목욕장,국민건강증진법 제9조,,100000,052-209-4131,"울산광역시 동구 등대로 8-4 (화정동, 655-11)","울산광역시 동구 등대로 8-4 (화정동, 655-11)",울산광역시 동구,35.4920758,129.4271408,2019-09-18
"성원탕",시설 실내,울산광역시,동구,목욕장,국민건강증진법 제9조,,100000,052-209-4131,울산광역시 동구 명덕7길 12 (서부동),울산광역시 동구 명덕7길 12 (서부동),울산광역시 동구,35.5233483,129.4307636,2019-09-18
"세왕탕",시설 실내,울산광역시,동구,목욕장,국민건강증진법 제9조,,100000,052-209-4131,울산광역시 동구 문재2길 59 (방어동),울산광역시 동구 문재2길 59 (방어동),울산광역시 동구,35.4852147,129.4185399,2019-09-18
"수어탕",시설 실내,울산광역시,동구,목욕장,국민건강증진법 제9조,,100000,052-209-4131,"울산광역시 동구 문재로 64 (방어동,외 1필지)","울산광역시 동구 문재로 64 (방어동,외 1필지)",울산광역시 동구,35.4850374,129.4210405,2019-09-18
"스파탕",시설 실내,울산광역시,동구,목욕장,국민건강증진법 제9조,,100000,052-209-4131,"울산광역시 동구 방어진순환도로 637 (일산동,(8층))","울산광역시 동구 방어진순환도로 637 (일산동,(8층))",울산광역시 동구,35.4989324,129.4274814,2019-09-18
"약수탕",시설 실내,울산광역시,동구,목욕장,국민건강증진법 제9조,,100000,052-209-4131,울산광역시 동구 방어진순환도로 875 (전하동),울산광역시 동구 방어진순환도로 875 (전하동),울산광역시 동구,35.51965154,129.4302605,2019-09-18
"옥류탕",시설 실내,울산광역시,동구,목욕장,국민건강증진법 제9조,,100000,052-209-4131,"울산광역시 동구 번덕1길 12-6, 1층 (일산동)","울산광역시 동구 번덕1길 12-6, 1층 (일산동)",울산광역시 동구,35.5036168,129.4287448,2019-09-18
"웰빙사우나",시설 실내,울산광역시,동구,목욕장,국민건강증진법 제9조,,100000,052-209-4131,"울산광역시 동구 안산로 46, 동부회관 (동부동)","울산광역시 동구 안산로 46, 동부회관 (동부동)",울산광역시 동구,35.541395,129.429637,2019-09-18
"유림탕",시설 실내,울산광역시,동구,목욕장,국민건강증진법 제9조,,100000,052-209-4131,울산광역시 동구 옥류3길 3-1 (서부동),울산광역시 동구 옥류3길 3-1 (서부동),울산광역시 동구,35.5398653,129.425812,2019-09-18
"일산탕",시설 실내,울산광역시,동구,목욕장,국민건강증진법 제9조,,100000,052-209-4131,울산광역시 동구 옥류로 68-1 (동부동),울산광역시 동구 옥류로 68-1 (동부동),울산광역시 동구,35.5447879,129.4261543,2019-09-18
"장수탕",시설 실내,울산광역시,동구,목욕장,국민건강증진법 제9조,,100000,052-209-4131,"울산광역시 동구 월봉10길 73 (방어동, 905-2)","울산광역시 동구 월봉10길 73 (방어동, 905-2)",울산광역시 동구,35.490791,129.418918,2019-09-18
"정안탕",시설 실내,울산광역시,동구,목욕장,국민건강증진법 제9조,,100000,052-209-4131,울산광역시 동구 월봉11길 31 (화정동),울산광역시 동구 월봉11길 31 (화정동),울산광역시 동구,35.4932623,129.4210718,2019-09-18
"해뜨는 해수월드(방어동)",시설 실내,울산광역시,동구,목욕장,국민건강증진법 제9조,,100000,052-209-4131,울산광역시 동구 중진1길 32 (방어동),울산광역시 동구 중진1길 32 (방어동),울산광역시 동구,35.4839212,129.4229867,2019-09-18
EXR스포츠센터,시설 실내,울산광역시,동구,목욕장,국민건강증진법 제9조,,100000,052-209-4131,울산광역시 동구 진성13길 91 (전하동),울산광역시 동구 진성13길 91 (전하동),울산광역시 동구,35.51059529,129.4264522,2019-09-18
"도장공장(1P,2P)",시설 실내,울산광역시,동구,"사무용 건축물, 공장 및 복합건축물",국민건강증진법 제9조,,100000,052-209-4131,울산광역시 동구 방어진순환도로 100,울산광역시 동구 방어진순환도로 100,울산광역시 동구,35.51139821,129.3983926,2019-09-18
"도장공장(4P,5P,6P)",시설 실내,울산광역시,동구,"사무용 건축물, 공장 및 복합건축물",국민건강증진법 제9조,,100000,052-209-4131,울산광역시 동구 방어진순환도로 101,울산광역시 동구 방어진순환도로 101,울산광역시 동구,35.482131,129.417194,2019-09-18
"도장공장(9P,10P,11P)",시설 실내,울산광역시,동구,"사무용 건축물, 공장 및 복합건축물",국민건강증진법 제9조,,100000,052-209-4131,울산광역시 동구 방어진순환도로 102,울산광역시 동구 방어진순환도로 102,울산광역시 동구,35.482693,129.417866,2019-09-18
"명승빌딩(경남은행,현대증권)",시설 실내,울산광역시,동구,"사무용 건축물, 공장 및 복합건축물",국민건강증진법 제9조,,100000,052-209-4131,울산광역시 동구 방어진순환도로 103,울산광역시 동구 방어진순환도로 103,울산광역시 동구,35.482693,129.417866,2019-09-18
1공장 본관-한국프렌지,시설 실내,울산광역시,동구,"사무용 건축물, 공장 및 복합건축물",국민건강증진법 제9조,,100000,052-209-4131,울산광역시 동구 방어진순환도로 104,울산광역시 동구 방어진순환도로 104,울산광역시 동구,35.480597,129.415661,2019-09-18
1현사(현장사무소),시설 실내,울산광역시,동구,"사무용 건축물, 공장 및 복합건축물",국민건강증진법 제9조,,100000,052-209-4131,울산광역시 동구 방어진순환도로 105,울산광역시 동구 방어진순환도로 105,울산광역시 동구,35.480597,129.415661,2019-09-18
2야드 가공공장,시설 실내,울산광역시,동구,"사무용 건축물, 공장 및 복합건축물",국민건강증진법 제9조,,100000,052-209-4131,울산광역시 동구 방어진순환도로 106,울산광역시 동구 방어진순환도로 106,울산광역시 동구,35.482423,129.418073,2019-09-18
2야드 가공관,시설 실내,울산광역시,동구,"사무용 건축물, 공장 및 복합건축물",국민건강증진법 제9조,,100000,052-209-4131,울산광역시 동구 방어진순환도로 107,울산광역시 동구 방어진순환도로 107,울산광역시 동구,35.482347,129.417871,2019-09-18
2야드 가공관(1),시설 실내,울산광역시,동구,"사무용 건축물, 공장 및 복합건축물",국민건강증진법 제9조,,100000,052-209-4131,울산광역시 동구 방어진순환도로 108,울산광역시 동구 방어진순환도로 108,울산광역시 동구,35.482347,129.417871,2019-09-18
2야드 대조관,시설 실내,울산광역시,동구,"사무용 건축물, 공장 및 복합건축물",국민건강증진법 제9조,,100000,052-209-4131,울산광역시 동구 방어진순환도로 109,울산광역시 동구 방어진순환도로 109,울산광역시 동구,35.482347,129.417871,2019-09-18
2야드 대조립공장,시설 실내,울산광역시,동구,"사무용 건축물, 공장 및 복합건축물",국민건강증진법 제9조,,100000,052-209-4131,울산광역시 동구 방어진순환도로 110,울산광역시 동구 방어진순환도로 110,울산광역시 동구,35.482347,129.417871,2019-09-18
2야드 도장 3공장,시설 실내,울산광역시,동구,"사무용 건축물, 공장 및 복합건축물",국민건강증진법 제9조,,100000,052-209-4131,울산광역시 동구 방어진순환도로 111,울산광역시 동구 방어진순환도로 111,울산광역시 동구,35.482347,129.417871,2019-09-18
2야드 도장1관,시설 실내,울산광역시,동구,"사무용 건축물, 공장 및 복합건축물",국민건강증진법 제9조,,100000,052-209-4131,울산광역시 동구 방어진순환도로 112,울산광역시 동구 방어진순환도로 112,울산광역시 동구,35.482347,129.417871,2019-09-18
2야드 도장2관,시설 실내,울산광역시,동구,"사무용 건축물, 공장 및 복합건축물",국민건강증진법 제9조,,100000,052-209-4131,울산광역시 동구 방어진순환도로 113,울산광역시 동구 방어진순환도로 113,울산광역시 동구,35.482347,129.417871,2019-09-18
2야드 도장3공장,시설 실내,울산광역시,동구,"사무용 건축물, 공장 및 복합건축물",국민건강증진법 제9조,,100000,052-209-4131,울산광역시 동구 방어진순환도로 114,울산광역시 동구 방어진순환도로 114,울산광역시 동구,35.502042,129.429772,2019-09-18
2야드 도장5공장,시설 실내,울산광역시,동구,"사무용 건축물, 공장 및 복합건축물",국민건강증진법 제9조,,100000,052-209-4131,울산광역시 동구 방어진순환도로 115,울산광역시 동구 방어진순환도로 115,울산광역시 동구,35.502042,129.429772,2019-09-18
2야드 도장6공장,시설 실내,울산광역시,동구,"사무용 건축물, 공장 및 복합건축물",국민건강증진법 제9조,,100000,052-209-4131,울산광역시 동구 방어진순환도로 116,울산광역시 동구 방어진순환도로 116,울산광역시 동구,35.502042,129.429772,2019-09-18
2야드 도장공장,시설 실내,울산광역시,동구,"사무용 건축물, 공장 및 복합건축물",국민건강증진법 제9조,,100000,052-209-4131,울산광역시 동구 방어진순환도로 117,울산광역시 동구 방어진순환도로 117,울산광역시 동구,35.502042,129.429772,2019-09-18
2야드 외업관,시설 실내,울산광역시,동구,"사무용 건축물, 공장 및 복합건축물",국민건강증진법 제9조,,100000,052-209-4131,울산광역시 동구 방어진순환도로 118,울산광역시 동구 방어진순환도로 118,울산광역시 동구,35.502042,129.429772,2019-09-18
2야드 중조공장,시설 실내,울산광역시,동구,"사무용 건축물, 공장 및 복합건축물",국민건강증진법 제9조,,100000,052-209-4131,울산광역시 동구 방어진순환도로 119,울산광역시 동구 방어진순환도로 119,울산광역시 동구,35.502042,129.429772,2019-09-18
2야드 판넬공장,시설 실내,울산광역시,동구,"사무용 건축물, 공장 및 복합건축물",국민건강증진법 제9조,,100000,052-209-4131,울산광역시 동구 방어진순환도로 120,울산광역시 동구 방어진순환도로 120,울산광역시 동구,35.502042,129.429772,2019-09-18
2현사,시설 실내,울산광역시,동구,"사무용 건축물, 공장 및 복합건축물",국민건강증진법 제9조,,100000,052-209-4131,울산광역시 동구 방어진순환도로 121,울산광역시 동구 방어진순환도로 121,울산광역시 동구,35.502042,129.429772,2019-09-18
300KV 변압기공장,시설 실내,울산광역시,동구,"사무용 건축물, 공장 및 복합건축물",국민건강증진법 제9조,,100000,052-209-4131,울산광역시 동구 방어진순환도로 122,울산광역시 동구 방어진순환도로 122,울산광역시 동구,35.502042,129.429772,2019-09-18
362KV 고압차단기공장,시설 실내,울산광역시,동구,"사무용 건축물, 공장 및 복합건축물",국민건강증진법 제9조,,100000,052-209-4131,울산광역시 동구 방어진순환도로 123,울산광역시 동구 방어진순환도로 123,울산광역시 동구,35.502042,129.429772,2019-09-18
3현사,시설 실내,울산광역시,동구,"사무용 건축물, 공장 및 복합건축물",국민건강증진법 제9조,,100000,052-209-4131,울산광역시 동구 방어진순환도로 124,울산광역시 동구 방어진순환도로 124,울산광역시 동구,35.502042,129.429772,2019-09-18
400KV 변압기공장,시설 실내,울산광역시,동구,"사무용 건축물, 공장 및 복합건축물",국민건강증진법 제9조,,100000,052-209-4131,울산광역시 동구 방어진순환도로 125,울산광역시 동구 방어진순환도로 125,울산광역시 동구,35.502042,129.429772,2019-09-18
500KV 변압기공장,시설 실내,울산광역시,동구,"사무용 건축물, 공장 및 복합건축물",국민건강증진법 제9조,,100000,052-209-4131,울산광역시 동구 방어진순환도로 126,울산광역시 동구 방어진순환도로 126,울산광역시 동구,35.502042,129.429772,2019-09-18
550KV고압차단기공장,시설 실내,울산광역시,동구,"사무용 건축물, 공장 및 복합건축물",국민건강증진법 제9조,,100000,052-209-4131,울산광역시 동구 방어진순환도로 127,울산광역시 동구 방어진순환도로 127,울산광역시 동구,35.502042,129.429772,2019-09-18
5현사,시설 실내,울산광역시,동구,"사무용 건축물, 공장 및 복합건축물",국민건강증진법 제9조,,100000,052-209-4131,울산광역시 동구 방어진순환도로 128,울산광역시 동구 방어진순환도로 128,울산광역시 동구,35.502042,129.429772,2019-09-18
6현사,시설 실내,울산광역시,동구,"사무용 건축물, 공장 및 복합건축물",국민건강증진법 제9조,,100000,052-209-4131,울산광역시 동구 방어진순환도로 129,울산광역시 동구 방어진순환도로 129,울산광역시 동구,35.502042,129.429772,2019-09-18
7080건물,시설 실내,울산광역시,동구,"사무용 건축물, 공장 및 복합건축물",국민건강증진법 제9조,,100000,052-209-4131,울산광역시 동구 방어진순환도로 130,울산광역시 동구 방어진순환도로 130,울산광역시 동구,35.502042,129.429772,2019-09-18
7현사,시설 실내,울산광역시,동구,"사무용 건축물, 공장 및 복합건축물",국민건강증진법 제9조,,100000,052-209-4131,울산광역시 동구 방어진순환도로 131,울산광역시 동구 방어진순환도로 131,울산광역시 동구,35.51160561,129.4039045,2019-09-18
800KV 변압기공장,시설 실내,울산광역시,동구,"사무용 건축물, 공장 및 복합건축물",국민건강증진법 제9조,,100000,052-209-4131,울산광역시 동구 방어진순환도로 132,울산광역시 동구 방어진순환도로 132,울산광역시 동구,35.502042,129.429772,2019-09-18
"가공공장 A동",시설 실내,울산광역시,동구,"사무용 건축물, 공장 및 복합건축물",국민건강증진법 제9조,,100000,052-209-4131,울산광역시 동구 방어진순환도로 133,울산광역시 동구 방어진순환도로 133,울산광역시 동구,35.502042,129.429772,2019-09-18
"가공공장 B동",시설 실내,울산광역시,동구,"사무용 건축물, 공장 및 복합건축물",국민건강증진법 제9조,,100000,052-209-4131,울산광역시 동구 방어진순환도로 134,울산광역시 동구 방어진순환도로 134,울산광역시 동구,35.502042,129.429772,2019-09-18
"가야정건물",시설 실내,울산광역시,동구,"사무용 건축물, 공장 및 복합건축물",국민건강증진법 제9조,,100000,052-209-4131,울산광역시 동구 방어진순환도로 135,울산광역시 동구 방어진순환도로 135,울산광역시 동구,35.502042,129.429772,2019-09-18
"갤러리pc방건물",시설 실내,울산광역시,동구,"사무용 건축물, 공장 및 복합건축물",국민건강증진법 제9조,,100000,052-209-4131,울산광역시 동구 방어진순환도로 136,울산광역시 동구 방어진순환도로 136,울산광역시 동구,35.502042,129.429772,2019-09-18
"건장) 건설장비1공장",시설 실내,울산광역시,동구,"사무용 건축물, 공장 및 복합건축물",국민건강증진법 제9조,,100000,052-209-4131,울산광역시 동구 방어진순환도로 137,울산광역시 동구 방어진순환도로 137,울산광역시 동구,35.502042,129.429772,2019-09-18
"건장) 건설장비2공장",시설 실내,울산광역시,동구,"사무용 건축물, 공장 및 복합건축물",국민건강증진법 제9조,,100000,052-209-4131,울산광역시 동구 방어진순환도로 138,울산광역시 동구 방어진순환도로 138,울산광역시 동구,35.500823,129.439021,2019-09-18
"건장) 건설장비시작실",시설 실내,울산광역시,동구,"사무용 건축물, 공장 및 복합건축물",국민건강증진법 제9조,,100000,052-209-4131,울산광역시 동구 방어진순환도로 139,울산광역시 동구 방어진순환도로 139,울산광역시 동구,35.480653,129.414046,2019-09-18
"건장) 시험동",시설 실내,울산광역시,동구,"사무용 건축물, 공장 및 복합건축물",국민건강증진법 제9조,,100000,052-209-4131,울산광역시 동구 방어진순환도로 140,울산광역시 동구 방어진순환도로 140,울산광역시 동구,35.5033561,129.4226834,2019-09-18
"건장) 유압창고",시설 실내,울산광역시,동구,"사무용 건축물, 공장 및 복합건축물",국민건강증진법 제9조,,100000,052-209-4131,울산광역시 동구 방어진순환도로 141,울산광역시 동구 방어진순환도로 141,울산광역시 동구,35.482494,129.414137,2019-09-18
"경남은행건물",시설 실내,울산광역시,동구,"사무용 건축물, 공장 및 복합건축물",국민건강증진법 제9조,,100000,052-209-4131,울산광역시 동구 방어진순환도로 142,울산광역시 동구 방어진순환도로 142,울산광역시 동구,35.482236,129.414366,2019-09-18
"경동빌딩",시설 실내,울산광역시,동구,"사무용 건축물, 공장 및 복합건축물",국민건강증진법 제9조,,100000,052-209-4131,울산광역시 동구 방어진순환도로 143,울산광역시 동구 방어진순환도로 143,울산광역시 동구,35.483299,129.413207,2019-09-18
"고기명가오늘건물",시설 실내,울산광역시,동구,"사무용 건축물, 공장 및 복합건축물",국민건강증진법 제9조,,100000,052-209-4131,울산광역시 동구 방어진순환도로 144,울산광역시 동구 방어진순환도로 144,울산광역시 동구,35.483772,129.413665,2019-09-18
"고려빌딩(경남은행건물)",시설 실내,울산광역시,동구,"사무용 건축물, 공장 및 복합건축물",국민건강증진법 제9조,,100000,052-209-4131,울산광역시 동구 방어진순환도로 145,울산광역시 동구 방어진순환도로 145,울산광역시 동구,35.482443,129.412681,2019-09-18
"공기구정비샵",시설 실내,울산광역시,동구,"사무용 건축물, 공장 및 복합건축물",국민건강증진법 제9조,,100000,052-209-4131,울산광역시 동구 방어진순환도로 146,울산광역시 동구 방어진순환도로 146,울산광역시 동구,35.481525,129.413491,2019-09-18
"공통지원사무동",시설 실내,울산광역시,동구,"사무용 건축물, 공장 및 복합건축물",국민건강증진법 제9조,,100000,052-209-4131,울산광역시 동구 방어진순환도로 147,울산광역시 동구 방어진순환도로 147,울산광역시 동구,35.481352,129.413372,2019-09-18
"광희빌딩",시설 실내,울산광역시,동구,"사무용 건축물, 공장 및 복합건축물",국민건강증진법 제9조,,100000,052-209-4131,울산광역시 동구 방어진순환도로 148,울산광역시 동구 방어진순환도로 148,울산광역시 동구,35.481298,129.414149,2019-09-18
"구)연수원(현 건장본관)",시설 실내,울산광역시,동구,"사무용 건축물, 공장 및 복합건축물",국민건강증진법 제9조,,100000,052-209-4131,울산광역시 동구 방어진순환도로 149,울산광역시 동구 방어진순환도로 149,울산광역시 동구,35.481158,129.414404,2019-09-18
"구조진동시험동",시설 실내,울산광역시,동구,"사무용 건축물, 공장 및 복합건축물",국민건강증진법 제9조,,100000,052-209-4131,울산광역시 동구 방어진순환도로 150,울산광역시 동구 방어진순환도로 150,울산광역시 동구,35.5093216,129.4032099,2019-09-18
"권안마건물",시설 실내,울산광역시,동구,"사무용 건축물, 공장 및 복합건축물",국민건강증진법 제9조,,100000,052-209-4131,울산광역시 동구 방어진순환도로 151,울산광역시 동구 방어진순환도로 151,울산광역시 동구,35.480671,129.411811,2019-09-18
"그린1급정비",시설 실내,울산광역시,동구,"사무용 건축물, 공장 및 복합건축물",국민건강증진법 제9조,,100000,052-209-4131,울산광역시 동구 방어진순환도로 152,울산광역시 동구 방어진순환도로 152,울산광역시 동구,35.484138,129.413451,2019-09-18
"금강크린",시설 실내,울산광역시,동구,"사무용 건축물, 공장 및 복합건축물",국민건강증진법 제9조,,100000,052-209-4131,울산광역시 동구 방어진순환도로 153,울산광역시 동구 방어진순환도로 153,울산광역시 동구,35.480289,129.412337,2019-09-18
"꽃바위공영차고지",시설 실내,울산광역시,동구,"사무용 건축물, 공장 및 복합건축물",국민건강증진법 제9조,,100000,052-209-4131,울산광역시 동구 방어진순환도로 154,울산광역시 동구 방어진순환도로 154,울산광역시 동구,35.481375,129.413248,2019-09-18
"나는가수다7080",시설 실내,울산광역시,동구,"사무용 건축물, 공장 및 복합건축물",국민건강증진법 제9조,,100000,052-209-4131,울산광역시 동구 방어진순환도로 155,울산광역시 동구 방어진순환도로 155,울산광역시 동구,35.482783,129.413897,2019-09-18
"내자창고",시설 실내,울산광역시,동구,"사무용 건축물, 공장 및 복합건축물",국민건강증진법 제9조,,100000,052-209-4131,울산광역시 동구 방어진순환도로 156,울산광역시 동구 방어진순환도로 156,울산광역시 동구,35.482851,129.414269,2019-09-18
"뉴동천탕건물",시설 실내,울산광역시,동구,"사무용 건축물, 공장 및 복합건축물",국민건강증진법 제9조,,100000,052-209-4131,울산광역시 동구 방어진순환도로 157,울산광역시 동구 방어진순환도로 157,울산광역시 동구,35.482851,129.414269,2019-09-18
"뉴정록모텔",시설 실내,울산광역시,동구,"사무용 건축물, 공장 및 복합건축물",국민건강증진법 제9조,,100000,052-209-4131,울산광역시 동구 방어진순환도로 158,울산광역시 동구 방어진순환도로 158,울산광역시 동구,35.483021,129.414356,2019-09-18
"다야몬드종합상가",시설 실내,울산광역시,동구,"사무용 건축물, 공장 및 복합건축물",국민건강증진법 제9조,,100000,052-209-4131,울산광역시 동구 방어진순환도로 159,울산광역시 동구 방어진순환도로 159,울산광역시 동구,35.483174,129.414467,2019-09-18
"대덕타워",시설 실내,울산광역시,동구,"사무용 건축물, 공장 및 복합건축물",국민건강증진법 제9조,,100000,052-209-4131,울산광역시 동구 방어진순환도로 160,울산광역시 동구 방어진순환도로 160,울산광역시 동구,35.483336,129.414572,2019-09-18
"대명빌딩",시설 실내,울산광역시,동구,"사무용 건축물, 공장 및 복합건축물",국민건강증진법 제9조,,100000,052-209-4131,울산광역시 동구 방어진순환도로 161,울산광역시 동구 방어진순환도로 161,울산광역시 동구,35.483336,129.414572,2019-09-18
"대송회관",시설 실내,울산광역시,동구,"사무용 건축물, 공장 및 복합건축물",국민건강증진법 제9조,,100000,052-209-4131,울산광역시 동구 방어진순환도로 162,울산광역시 동구 방어진순환도로 162,울산광역시 동구,35.483629,129.414797,2019-09-18
"대영빌딩",시설 실내,울산광역시,동구,"사무용 건축물, 공장 및 복합건축물",국민건강증진법 제9조,,100000,052-209-4131,울산광역시 동구 방어진순환도로 163,울산광역시 동구 방어진순환도로 163,울산광역시 동구,35.483629,129.414797,2019-09-18
"대조립2공장",시설 실내,울산광역시,동구,"사무용 건축물, 공장 및 복합건축물",국민건강증진법 제9조,,100000,052-209-4131,울산광역시 동구 방어진순환도로 164,울산광역시 동구 방어진순환도로 164,울산광역시 동구,35.481312,129.413485,2019-09-18
"대조립공장",시설 실내,울산광역시,동구,"사무용 건축물, 공장 및 복합건축물",국민건강증진법 제9조,,100000,052-209-4131,울산광역시 동구 방어진순환도로 165,울산광역시 동구 방어진순환도로 165,울산광역시 동구,35.481312,129.413485,2019-09-18
"도료창고",시설 실내,울산광역시,동구,"사무용 건축물, 공장 및 복합건축물",국민건강증진법 제9조,,100000,052-209-4131,울산광역시 동구 방어진순환도로 166,울산광역시 동구 방어진순환도로 166,울산광역시 동구,35.481312,129.413485,2019-09-18
"도장 3공장",시설 실내,울산광역시,동구,"사무용 건축물, 공장 및 복합건축물",국민건강증진법 제9조,,100000,052-209-4131,울산광역시 동구 방어진순환도로 167,울산광역시 동구 방어진순환도로 167,울산광역시 동구,35.481312,129.413485,2019-09-18
"도장1공장",시설 실내,울산광역시,동구,"사무용 건축물, 공장 및 복합건축물",국민건강증진법 제9조,,100000,052-209-4131,울산광역시 동구 방어진순환도로 168,울산광역시 동구 방어진순환도로 168,울산광역시 동구,35.482906,129.414556,2019-09-18
"도장2공장",시설 실내,울산광역시,동구,"사무용 건축물, 공장 및 복합건축물",국민건강증진법 제9조,,100000,052-209-4131,울산광역시 동구 방어진순환도로 169,울산광역시 동구 방어진순환도로 169,울산광역시 동구,35.483013,129.414801,2019-09-18
"도장3공장",시설 실내,울산광역시,동구,"사무용 건축물, 공장 및 복합건축물",국민건강증진법 제9조,,100000,052-209-4131,울산광역시 동구 방어진순환도로 170,울산광역시 동구 방어진순환도로 170,울산광역시 동구,35.483123,129.414957,2019-09-18
"도장4공장",시설 실내,울산광역시,동구,"사무용 건축물, 공장 및 복합건축물",국민건강증진법 제9조,,100000,052-209-4131,울산광역시 동구 방어진순환도로 171,울산광역시 동구 방어진순환도로 171,울산광역시 동구,35.482885,129.415378,2019-09-18
"도장5공장",시설 실내,울산광역시,동구,"사무용 건축물, 공장 및 복합건축물",국민건강증진법 제9조,,100000,052-209-4131,울산광역시 동구 방어진순환도로 172,울산광역시 동구 방어진순환도로 172,울산광역시 동구,35.482885,129.415378,2019-09-18
"도장8공장",시설 실내,울산광역시,동구,"사무용 건축물, 공장 및 복합건축물",국민건강증진법 제9조,,100000,052-209-4131,울산광역시 동구 방어진순환도로 173,울산광역시 동구 방어진순환도로 173,울산광역시 동구,35.482885,129.415378,2019-09-18
"도장공장",시설 실내,울산광역시,동구,"사무용 건축물, 공장 및 복합건축물",국민건강증진법 제9조,,100000,052-209-4131,울산광역시 동구 방어진순환도로 174,울산광역시 동구 방어진순환도로 174,울산광역시 동구,35.482885,129.415378,2019-09-18
"도장시험동",시설 실내,울산광역시,동구,"사무용 건축물, 공장 및 복합건축물",국민건강증진법 제9조,,100000,052-209-4131,울산광역시 동구 방어진순환도로 175,울산광역시 동구 방어진순환도로 175,울산광역시 동구,35.483374,129.415243,2019-09-18
"동관",시설 실내,울산광역시,동구,"사무용 건축물, 공장 및 복합건축물",국민건강증진법 제9조,,100000,052-209-4131,울산광역시 동구 방어진순환도로 176,울산광역시 동구 방어진순환도로 176,울산광역시 동구,35.483374,129.415243,2019-09-18
"동구장애인보호작업장",시설 실내,울산광역시,동구,"사무용 건축물, 공장 및 복합건축물",국민건강증진법 제9조,,100000,052-209-4131,울산광역시 동구 방어진순환도로 177,울산광역시 동구 방어진순환도로 177,울산광역시 동구,35.480922,129.413233,2019-09-18
"동부패밀리상가새마을금고",시설 실내,울산광역시,동구,"사무용 건축물, 공장 및 복합건축물",국민건강증진법 제9조,,100000,052-209-4131,울산광역시 동구 방어진순환도로 178,울산광역시 동구 방어진순환도로 178,울산광역시 동구,35.481323,129.408741,2019-09-18
"동부회관",시설 실내,울산광역시,동구,"사무용 건축물, 공장 및 복합건축물",국민건강증진법 제9조,,100000,052-209-4131,울산광역시 동구 방어진순환도로 179,울산광역시 동구 방어진순환도로 179,울산광역시 동구,35.480883,129.408968,2019-09-18
"동부APT상가",시설 실내,울산광역시,동구,"사무용 건축물, 공장 및 복합건축물",국민건강증진법 제9조,,100000,052-209-4131,울산광역시 동구 방어진순환도로 180,울산광역시 동구 방어진순환도로 180,울산광역시 동구,35.480213,129.409111,2019-09-18
"동서빌딩",시설 실내,울산광역시,동구,"사무용 건축물, 공장 및 복합건축물",국민건강증진법 제9조,,100000,052-209-4131,울산광역시 동구 방어진순환도로 181,울산광역시 동구 방어진순환도로 181,울산광역시 동구,35.477676,129.410198,2019-09-18
"동아빌딩(세종현대병원건물)",시설 실내,울산광역시,동구,"사무용 건축물, 공장 및 복합건축물",국민건강증진법 제9조,,100000,052-209-4131,울산광역시 동구 방어진순환도로 182,울산광역시 동구 방어진순환도로 182,울산광역시 동구,35.477676,129.410198,2019-09-18
"동울산새마을금고",시설 실내,울산광역시,동구,"사무용 건축물, 공장 및 복합건축물",국민건강증진법 제9조,,100000,052-209-4131,울산광역시 동구 방어진순환도로 183,울산광역시 동구 방어진순환도로 183,울산광역시 동구,35.477376,129.411208,2019-09-18
"동울산정비",시설 실내,울산광역시,동구,"사무용 건축물, 공장 및 복합건축물",국민건강증진법 제9조,,100000,052-209-4131,울산광역시 동구 방어진순환도로 184,울산광역시 동구 방어진순환도로 184,울산광역시 동구,35.478299,129.412265,2019-09-18
"동울산종합시장",시설 실내,울산광역시,동구,"사무용 건축물, 공장 및 복합건축물",국민건강증진법 제9조,,100000,052-209-4131,울산광역시 동구 방어진순환도로 185,울산광역시 동구 방어진순환도로 185,울산광역시 동구,35.478739,129.413367,2019-09-18
"동장7공장",시설 실내,울산광역시,동구,"사무용 건축물, 공장 및 복합건축물",국민건강증진법 제9조,,100000,052-209-4131,울산광역시 동구 방어진순환도로 186,울산광역시 동구 방어진순환도로 186,울산광역시 동구,35.478813,129.413511,2019-09-18
"동진빌딩(현대증권)",시설 실내,울산광역시,동구,"사무용 건축물, 공장 및 복합건축물",국민건강증진법 제9조,,100000,052-209-4131,울산광역시 동구 방어진순환도로 187,울산광역시 동구 방어진순환도로 187,울산광역시 동구,35.478813,129.413511,2019-09-18
"드림마트건물",시설 실내,울산광역시,동구,"사무용 건축물, 공장 및 복합건축물",국민건강증진법 제9조,,100000,052-209-4131,울산광역시 동구 방어진순환도로 188,울산광역시 동구 방어진순환도로 188,울산광역시 동구,35.479068,129.413817,2019-09-18
"로보트공장",시설 실내,울산광역시,동구,"사무용 건축물, 공장 및 복합건축물",국민건강증진법 제9조,,100000,052-209-4131,울산광역시 동구 방어진순환도로 189,울산광역시 동구 방어진순환도로 189,울산광역시 동구,35.479433,129.413706,2019-09-18
"로보트본관",시설 실내,울산광역시,동구,"사무용 건축물, 공장 및 복합건축물",국민건강증진법 제9조,,100000,052-209-4131,울산광역시 동구 방어진순환도로 190,울산광역시 동구 방어진순환도로 190,울산광역시 동구,35.479221,129.413921,2019-09-18
"로얄아파트",시설 실내,울산광역시,동구,"사무용 건축물, 공장 및 복합건축물",국민건강증진법 제9조,,100000,052-209-4131,울산광역시 동구 방어진순환도로 191,울산광역시 동구 방어진순환도로 191,울산광역시 동구,35.479708,129.413992,2019-09-18
"리더스윤치과건물",시설 실내,울산광역시,동구,"사무용 건축물, 공장 및 복합건축물",국민건강증진법 제9조,,100000,052-209-4131,울산광역시 동구 방어진순환도로 192,울산광역시 동구 방어진순환도로 192,울산광역시 동구,35.479791,129.414519,2019-09-18
"마스터골프연습장건물",시설 실내,울산광역시,동구,"사무용 건축물, 공장 및 복합건축물",국민건강증진법 제9조,,100000,052-209-4131,울산광역시 동구 방어진순환도로 400,울산광역시 동구 방어진순환도로 400,울산광역시 동구,35.4827412,129.4060105,2019-09-18
"명동의류건물",시설 실내,울산광역시,동구,"사무용 건축물, 공장 및 복합건축물",국민건강증진법 제9조,,100000,052-209-4131,울산광역시 동구 방어진순환도로 400,울산광역시 동구 방어진순환도로 400,울산광역시 동구,35.4827412,129.4060105,2019-09-18
"명성오피스텔",시설 실내,울산광역시,동구,"사무용 건축물, 공장 및 복합건축물",국민건강증진법 제9조,,100000,052-209-4131,울산광역시 동구 방어진순환도로 400,울산광역시 동구 방어진순환도로 400,울산광역시 동구,35.4827412,129.4060105,2019-09-18
"목화아파트상가",시설 실내,울산광역시,동구,"사무용 건축물, 공장 및 복합건축물",국민건강증진법 제9조,,100000,052-209-4131,울산광역시 동구 방어진순환도로 400,울산광역시 동구 방어진순환도로 400,울산광역시 동구,35.4827412,129.4060105,2019-09-18
"무지개상가",시설 실내,울산광역시,동구,"사무용 건축물, 공장 및 복합건축물",국민건강증진법 제9조,,100000,052-209-4131,울산광역시 동구 방어진순환도로 400,울산광역시 동구 방어진순환도로 400,울산광역시 동구,35.4827412,129.4060105,2019-09-18
"문현관",시설 실내,울산광역시,동구,"사무용 건축물, 공장 및 복합건축물",국민건강증진법 제9조,,100000,052-209-4131,울산광역시 동구 방어진순환도로 400,울산광역시 동구 방어진순환도로 400,울산광역시 동구,35.4827412,129.4060105,2019-09-18
"문현시장상가",시설 실내,울산광역시,동구,"사무용 건축물, 공장 및 복합건축물",국민건강증진법 제9조,,100000,052-209-4131,울산광역시 동구 방어진순환도로 400,울산광역시 동구 방어진순환도로 400,울산광역시 동구,35.4827412,129.4060105,2019-09-18
"문화홍보관",시설 실내,울산광역시,동구,"사무용 건축물, 공장 및 복합건축물",국민건강증진법 제9조,,100000,052-209-4131,울산광역시 동구 방어진순환도로 400,울산광역시 동구 방어진순환도로 400,울산광역시 동구,35.4827412,129.4060105,2019-09-18
"미포복지회관",시설 실내,울산광역시,동구,"사무용 건축물, 공장 및 복합건축물",국민건강증진법 제9조,,100000,052-209-4131,울산광역시 동구 방어진순환도로 400,울산광역시 동구 방어진순환도로 400,울산광역시 동구,35.4827412,129.4060105,2019-09-18
"바다장어조개구이건물",시설 실내,울산광역시,동구,"사무용 건축물, 공장 및 복합건축물",국민건강증진법 제9조,,100000,052-209-4131,울산광역시 동구 방어진순환도로 400,울산광역시 동구 방어진순환도로 400,울산광역시 동구,35.4827412,129.4060105,2019-09-18
"박가부대찌개",시설 실내,울산광역시,동구,"사무용 건축물, 공장 및 복합건축물",국민건강증진법 제9조,,100000,052-209-4131,울산광역시 동구 방어진순환도로 400,울산광역시 동구 방어진순환도로 400,울산광역시 동구,35.4827412,129.4060105,2019-09-18
"변 전 실",시설 실내,울산광역시,동구,"사무용 건축물, 공장 및 복합건축물",국민건강증진법 제9조,,100000,052-209-4131,울산광역시 동구 방어진순환도로 783,울산광역시 동구 방어진순환도로 783,울산광역시 동구,35.5115656,129.4303947,2019-09-18
"복합시험동",시설 실내,울산광역시,동구,"사무용 건축물, 공장 및 복합건축물",국민건강증진법 제9조,,100000,052-209-4131,울산광역시 동구 방어진순환도로1100,울산광역시 동구 방어진순환도로1100,울산광역시 동구,35.5384462,129.4289895,2019-09-18
"본관",시설 실내,울산광역시,동구,"사무용 건축물, 공장 및 복합건축물",국민건강증진법 제9조,,100000,052-209-4131,울산광역시 동구 방어진순환도로1119,울산광역시 동구 방어진순환도로1119,울산광역시 동구,35.5390376,129.4262356,2019-09-18
"본관(현대미포조선)",시설 실내,울산광역시,동구,"사무용 건축물, 공장 및 복합건축물",국민건강증진법 제9조,,100000,052-209-4131,울산광역시 동구 방어진순환도로30,울산광역시 동구 방어진순환도로30,울산광역시 동구,35.5216599,129.3924452,2019-09-18
"본관(KCC)",시설 실내,울산광역시,동구,"사무용 건축물, 공장 및 복합건축물",국민건강증진법 제9조,,100000,052-209-4131,울산광역시 동구 방어진순환도로30,울산광역시 동구 방어진순환도로30,울산광역시 동구,35.5216599,129.3924452,2019-09-18
"봉평메밀",시설 실내,울산광역시,동구,"사무용 건축물, 공장 및 복합건축물",국민건강증진법 제9조,,100000,052-209-4131,울산광역시 동구 방어진순환도로30,울산광역시 동구 방어진순환도로30,울산광역시 동구,35.5216599,129.3924452,2019-09-18
"부국장건물",시설 실내,울산광역시,동구,"사무용 건축물, 공장 및 복합건축물",국민건강증진법 제9조,,100000,052-209-4131,울산광역시 동구 방어진순환도로563,울산광역시 동구 방어진순환도로563,울산광역시 동구,35.4922219,129.4262199,2019-09-18
"부민약국건물",시설 실내,울산광역시,동구,"사무용 건축물, 공장 및 복합건축물",국민건강증진법 제9조,,100000,052-209-4131,울산광역시 동구 방어진순환도로588,울산광역시 동구 방어진순환도로588,울산광역시 동구,35.4941326,129.4272852,2019-09-18
"부부한의원건물",시설 실내,울산광역시,동구,"사무용 건축물, 공장 및 복합건축물",국민건강증진법 제9조,,100000,052-209-4131,울산광역시 동구 방어진순환도로619,울산광역시 동구 방어진순환도로619,울산광역시 동구,35.4970723,129.427464,2019-09-18
"부속병원",시설 실내,울산광역시,동구,"사무용 건축물, 공장 및 복합건축물",국민건강증진법 제9조,,100000,052-209-4131,울산광역시 동구 방어진순환도로633,울산광역시 동구 방어진순환도로633,울산광역시 동구,35.49836246,129.4277192,2019-09-18
"블루문건물",시설 실내,울산광역시,동구,"사무용 건축물, 공장 및 복합건축물",국민건강증진법 제9조,,100000,052-209-4131,울산광역시 동구 방어진순환도로642,울산광역시 동구 방어진순환도로642,울산광역시 동구,35.498952,129.4286412,2019-09-18
"사무실본관(3공장)-한국프렌지",시설 실내,울산광역시,동구,"사무용 건축물, 공장 및 복합건축물",국민건강증진법 제9조,,100000,052-209-4131,울산광역시 동구 방어진순환도로645,울산광역시 동구 방어진순환도로645,울산광역시 동구,35.4994109,129.4280972,2019-09-18
"산소공장",시설 실내,울산광역시,동구,"사무용 건축물, 공장 및 복합건축물",국민건강증진법 제9조,,100000,052-209-4131,울산광역시 동구 방어진순환도로649,울산광역시 동구 방어진순환도로649,울산광역시 동구,35.4997181,129.4281125,2019-09-18
"삼전아이필 하모니상가",시설 실내,울산광역시,동구,"사무용 건축물, 공장 및 복합건축물",국민건강증진법 제9조,,100000,052-209-4131,울산광역시 동구 방어진순환도로651,울산광역시 동구 방어진순환도로651,울산광역시 동구,35.5000003,129.4282564,2019-09-18
"생기나라한의원건물",시설 실내,울산광역시,동구,"사무용 건축물, 공장 및 복합건축물",국민건강증진법 제9조,,100000,052-209-4131,울산광역시 동구 방어진순환도로652,울산광역시 동구 방어진순환도로652,울산광역시 동구,35.4997996,129.4293738,2019-09-18
"생산기술1관",시설 실내,울산광역시,동구,"사무용 건축물, 공장 및 복합건축물",국민건강증진법 제9조,,100000,052-209-4131,울산광역시 동구 방어진순환도로662,울산광역시 동구 방어진순환도로662,울산광역시 동구,35.5009111,129.4290485,2019-09-18
"생산기술2관",시설 실내,울산광역시,동구,"사무용 건축물, 공장 및 복합건축물",국민건강증진법 제9조,,100000,052-209-4131,울산광역시 동구 방어진순환도로670,울산광역시 동구 방어진순환도로670,울산광역시 동구,35.5014034,129.4291079,2019-09-18
"생산기술3관",시설 실내,울산광역시,동구,"사무용 건축물, 공장 및 복합건축물",국민건강증진법 제9조,,100000,052-209-4131,울산광역시 동구 방어진순환도로695,울산광역시 동구 방어진순환도로695,울산광역시 동구,35.5038126,129.4291858,2019-09-18
"생산지원관",시설 실내,울산광역시,동구,"사무용 건축물, 공장 및 복합건축물",국민건강증진법 제9조,,100000,052-209-4131,울산광역시 동구 방어진순환도로707,울산광역시 동구 방어진순환도로707,울산광역시 동구,35.5048323,129.4293086,2019-09-18
"서관",시설 실내,울산광역시,동구,"사무용 건축물, 공장 및 복합건축물",국민건강증진법 제9조,,100000,052-209-4131,울산광역시 동구 방어진순환도로733,울산광역시 동구 방어진순환도로733,울산광역시 동구,35.506835,129.4294599,2019-09-18
"서광빌딩",시설 실내,울산광역시,동구,"사무용 건축물, 공장 및 복합건축물",국민건강증진법 제9조,,100000,052-209-4131,울산광역시 동구 방어진순환도로741-1,울산광역시 동구 방어진순환도로741-1,울산광역시 동구,35.5080488,129.4297062,2019-09-18
"서부회관",시설 실내,울산광역시,동구,"사무용 건축물, 공장 및 복합건축물",국민건강증진법 제9조,,100000,052-209-4131,울산광역시 동구 방어진순환도로761,울산광역시 동구 방어진순환도로761,울산광역시 동구,35.5098352,129.4300036,2019-09-18
"서부APT상가",시설 실내,울산광역시,동구,"사무용 건축물, 공장 및 복합건축물",국민건강증진법 제9조,,100000,052-209-4131,울산광역시 동구 방어진순환도로775,울산광역시 동구 방어진순환도로775,울산광역시 동구,35.5109397,129.430205,2019-09-18
"서울장여관건물",시설 실내,울산광역시,동구,"사무용 건축물, 공장 및 복합건축물",국민건강증진법 제9조,,100000,052-209-4131,울산광역시 동구 방어진순환도로787,울산광역시 동구 방어진순환도로787,울산광역시 동구,35.5120758,129.4305371,2019-09-18
"서원빌딩",시설 실내,울산광역시,동구,"사무용 건축물, 공장 및 복합건축물",국민건강증진법 제9조,,100000,052-209-4131,울산광역시 동구 방어진순환도로911-1,울산광역시 동구 방어진순환도로911-1,울산광역시 동구,35.5225384,129.4324096,2019-09-18
"선각 6B",시설 실내,울산광역시,동구,"사무용 건축물, 공장 및 복합건축물",국민건강증진법 제9조,,100000,052-209-4131,울산광역시 동구 방어진순환도로975,울산광역시 동구 방어진순환도로975,울산광역시 동구,35.52826734,129.4328483,2019-09-18
"선각1공장",시설 실내,울산광역시,동구,"사무용 건축물, 공장 및 복합건축물",국민건강증진법 제9조,,100000,052-209-4131,울산광역시 동구 방어진순환도로995-2,울산광역시 동구 방어진순환도로995-2,울산광역시 동구,35.5296122,129.4310788,2019-09-18
"선각2공장",시설 실내,울산광역시,동구,"사무용 건축물, 공장 및 복합건축물",국민건강증진법 제9조,,100000,052-209-4131,울산광역시 동구 고늘로6,울산광역시 동구 고늘로6,울산광역시 동구,35.502059,129.429761,2019-09-18
"선각3공장",시설 실내,울산광역시,동구,"사무용 건축물, 공장 및 복합건축물",국민건강증진법 제9조,,100000,052-209-4131,울산광역시 동구 꽃바위로 250,울산광역시 동구 꽃바위로 250,울산광역시 동구,35.4822258,129.4169414,2019-09-18
"선각5공장",시설 실내,울산광역시,동구,"사무용 건축물, 공장 및 복합건축물",국민건강증진법 제9조,,100000,052-209-4131,울산광역시 동구 꽃바위로165,울산광역시 동구 꽃바위로165,울산광역시 동구,35.4776715,129.4104024,2019-09-18
"선각공장",시설 실내,울산광역시,동구,"사무용 건축물, 공장 및 복합건축물",국민건강증진법 제9조,,100000,052-209-4131,울산광역시 동구 꽃바위로218,울산광역시 동구 꽃바위로218,울산광역시 동구,35.4800334,129.4147531,2019-09-18
"선각A셀터",시설 실내,울산광역시,동구,"사무용 건축물, 공장 및 복합건축물",국민건강증진법 제9조,,100000,052-209-4131,울산광역시 동구 꽃바위로262,울산광역시 동구 꽃바위로262,울산광역시 동구,35.4828964,129.4179383,2019-09-18
"선각C셀터",시설 실내,울산광역시,동구,"사무용 건축물, 공장 및 복합건축물",국민건강증진법 제9조,,100000,052-209-4131,울산광역시 동구 남목11길20,울산광역시 동구 남목11길20,울산광역시 동구,35.54430241,129.424253,2019-09-18
"선박해양연구소",시설 실내,울산광역시,동구,"사무용 건축물, 공장 및 복합건축물",국민건강증진법 제9조,,100000,052-209-4131,울산광역시 동구 남목16길4,울산광역시 동구 남목16길4,울산광역시 동구,35.5422923,129.4265226,2019-09-18
"선체내업관",시설 실내,울산광역시,동구,"사무용 건축물, 공장 및 복합건축물",국민건강증진법 제9조,,100000,052-209-4131,울산광역시 동구 남목20길32,울산광역시 동구 남목20길32,울산광역시 동구,35.5444028,129.429408,2019-09-18
"선행공장 부속동",시설 실내,울산광역시,동구,"사무용 건축물, 공장 및 복합건축물",국민건강증진법 제9조,,100000,052-209-4131,울산광역시 동구 남목21길15,울산광역시 동구 남목21길15,울산광역시 동구,35.5451447,129.4298131,2019-09-18
"선행도장공장",시설 실내,울산광역시,동구,"사무용 건축물, 공장 및 복합건축물",국민건강증진법 제9조,,100000,052-209-4131,울산광역시 동구 남진길35,울산광역시 동구 남진길35,울산광역시 동구,35.4813482,129.4171486,2019-09-18
"선행현사",시설 실내,울산광역시,동구,"사무용 건축물, 공장 및 복합건축물",국민건강증진법 제9조,,100000,052-209-4131,울산광역시 동구 녹수11길45,울산광역시 동구 녹수11길45,울산광역시 동구,35.5149187,129.4262608,2019-09-18
"성원상떼빌아파트상가",시설 실내,울산광역시,동구,"사무용 건축물, 공장 및 복합건축물",국민건강증진법 제9조,,100000,052-209-4131,울산광역시 동구 녹수12길40,울산광역시 동구 녹수12길40,울산광역시 동구,35.5149037,129.4256233,2019-09-18
"성원탕건물",시설 실내,울산광역시,동구,"사무용 건축물, 공장 및 복합건축물",국민건강증진법 제9조,,100000,052-209-4131,울산광역시 동구 녹수1길6,울산광역시 동구 녹수1길6,울산광역시 동구,35.5142012,129.4312903,2019-09-18
"성형공장",시설 실내,울산광역시,동구,"사무용 건축물, 공장 및 복합건축물",국민건강증진법 제9조,,100000,052-209-4131,울산광역시 동구 녹수7길 47,울산광역시 동구 녹수7길 47,울산광역시 동구,35.5146688,129.4311486,2019-09-18
"세계로마트",시설 실내,울산광역시,동구,"사무용 건축물, 공장 및 복합건축물",국민건강증진법 제9조,,100000,052-209-4131,울산광역시 동구 녹수8길60,울산광역시 동구 녹수8길60,울산광역시 동구,35.515156,129.4312631,2019-09-18
"세계로마트건물(남목)",시설 실내,울산광역시,동구,"사무용 건축물, 공장 및 복합건축물",국민건강증진법 제9조,,100000,052-209-4131,울산광역시 동구 대송1길50,울산광역시 동구 대송1길50,울산광역시 동구,35.4992184,129.4211249,2019-09-18
"세븐일레븐건물",시설 실내,울산광역시,동구,"사무용 건축물, 공장 및 복합건축물",국민건강증진법 제9조,,100000,052-209-4131,울산광역시 동구 대송8길17,울산광역시 동구 대송8길17,울산광역시 동구,35.4997979,129.420055,2019-09-18
"세영빌딩",시설 실내,울산광역시,동구,"사무용 건축물, 공장 및 복합건축물",국민건강증진법 제9조,,100000,052-209-4131,울산광역시 동구 대송8길6,울산광역시 동구 대송8길6,울산광역시 동구,35.4991708,129.4206468,2019-09-18
"세움베스트",시설 실내,울산광역시,동구,"사무용 건축물, 공장 및 복합건축물",국민건강증진법 제9조,,100000,052-209-4131,울산광역시 동구 대송9길13,울산광역시 동구 대송9길13,울산광역시 동구,35.4995358,129.4208064,2019-09-18
"세인트에스타워",시설 실내,울산광역시,동구,"사무용 건축물, 공장 및 복합건축물",국민건강증진법 제9조,,100000,052-209-4131,울산광역시 동구 대송로10,울산광역시 동구 대송로10,울산광역시 동구,35.484992,129.418702,2019-09-18
"소담애건물",시설 실내,울산광역시,동구,"사무용 건축물, 공장 및 복합건축물",국민건강증진법 제9조,,100000,052-209-4131,울산광역시 동구 대송로12,울산광역시 동구 대송로12,울산광역시 동구,35.504452,129.4280861,2019-09-18
"소조립공장",시설 실내,울산광역시,동구,"사무용 건축물, 공장 및 복합건축물",국민건강증진법 제9조,,100000,052-209-4131,울산광역시 동구 대학길145,울산광역시 동구 대학길145,울산광역시 동구,35.4977577,129.4256047,2019-09-18
"소형전동기공장",시설 실내,울산광역시,동구,"사무용 건축물, 공장 및 복합건축물",국민건강증진법 제9조,,100000,052-209-4131,울산광역시 동구 대학길146,울산광역시 동구 대학길146,울산광역시 동구,35.4973907,129.425391,2019-09-18
"수어탕건물",시설 실내,울산광역시,동구,"사무용 건축물, 공장 및 복합건축물",국민건강증진법 제9조,,100000,052-209-4131,울산광역시 동구 대학길169,울산광역시 동구 대학길169,울산광역시 동구,35.4972104,129.4266905,2019-09-18
"수정보통신건물",시설 실내,울산광역시,동구,"사무용 건축물, 공장 및 복합건축물",국민건강증진법 제9조,,100000,052-209-4131,울산광역시 동구 대학길180,울산광역시 동구 대학길180,울산광역시 동구,35.4968041,129.4271308,2019-09-18
"수협건물",시설 실내,울산광역시,동구,"사무용 건축물, 공장 및 복합건축물",국민건강증진법 제9조,,100000,052-209-4131,울산광역시 동구 대학길30,울산광역시 동구 대학길30,울산광역시 동구,35.4982939,129.4195733,2019-09-18
"수협화정동지점",시설 실내,울산광역시,동구,"사무용 건축물, 공장 및 복합건축물",국민건강증진법 제9조,,100000,052-209-4131,울산광역시 동구 대학길43,울산광역시 동구 대학길43,울산광역시 동구,35.4988246,129.4200478,2019-09-18
"시골분식건물",시설 실내,울산광역시,동구,"사무용 건축물, 공장 및 복합건축물",국민건강증진법 제9조,,100000,052-209-4131,울산광역시 동구 대학길59,울산광역시 동구 대학길59,울산광역시 동구,35.4989292,129.4211903,2019-09-18
"시사어학원건물",시설 실내,울산광역시,동구,"사무용 건축물, 공장 및 복합건축물",국민건강증진법 제9조,,100000,052-209-4131,울산광역시 동구 대학길68,울산광역시 동구 대학길68,울산광역시 동구,35.4985327,129.4214104,2019-09-18
"시설부 사무실",시설 실내,울산광역시,동구,"사무용 건축물, 공장 및 복합건축물",국민건강증진법 제9조,,100000,052-209-4131,울산광역시 동구 대학길71,울산광역시 동구 대학길71,울산광역시 동구,35.4989006,129.4217056,2019-09-18
"식당건물",시설 실내,울산광역시,동구,"사무용 건축물, 공장 및 복합건축물",국민건강증진법 제9조,,100000,052-209-4131,울산광역시 동구 대학길89,울산광역시 동구 대학길89,울산광역시 동구,35.4987156,129.4227141,2019-09-18
"신관",시설 실내,울산광역시,동구,"사무용 건축물, 공장 및 복합건축물",국민건강증진법 제9조,,100000,052-209-4131,울산광역시 동구 동진2길7,울산광역시 동구 동진2길7,울산광역시 동구,35.4875034,129.4262379,2019-09-18
"신도장공장",시설 실내,울산광역시,동구,"사무용 건축물, 공장 및 복합건축물",국민건강증진법 제9조,,100000,052-209-4131,울산광역시 동구 동해안로32,울산광역시 동구 동해안로32,울산광역시 동구,35.541951,129.426976,2019-09-18
"신한은행",시설 실내,울산광역시,동구,"사무용 건축물, 공장 및 복합건축물",국민건강증진법 제9조,,100000,052-209-4131,울산광역시 동구 동해안로35,울산광역시 동구 동해안로35,울산광역시 동구,35.5424462,129.4269245,2019-09-18
"신화창조스포츠건물",시설 실내,울산광역시,동구,"사무용 건축물, 공장 및 복합건축물",국민건강증진법 제9조,,100000,052-209-4131,울산광역시 동구 동해안로4,울산광역시 동구 동해안로4,울산광역시 동구,35.5399771,129.4249058,2019-09-18
"알미늄 선류공장",시설 실내,울산광역시,동구,"사무용 건축물, 공장 및 복합건축물",국민건강증진법 제9조,,100000,052-209-4131,울산광역시 동구 동해안로49,울산광역시 동구 동해안로49,울산광역시 동구,35.5423461,129.4286022,2019-09-18
"엔) 공작기계공장(중형엔진1)",시설 실내,울산광역시,동구,"사무용 건축물, 공장 및 복합건축물",국민건강증진법 제9조,,100000,052-209-4131,울산광역시 동구 동해안로50,울산광역시 동구 동해안로50,울산광역시 동구,35.5420823,129.4287309,2019-09-18
"엔) 기계가공1-3공장",시설 실내,울산광역시,동구,"사무용 건축물, 공장 및 복합건축물",국민건강증진법 제9조,,100000,052-209-4131,울산광역시 동구 등대로34,울산광역시 동구 등대로34,울산광역시 동구,35.4907772,129.4298035,2019-09-18
"엔) 단조 및 주조공장",시설 실내,울산광역시,동구,"사무용 건축물, 공장 및 복합건축물",국민건강증진법 제9조,,100000,052-209-4131,울산광역시 동구 명덕3길15,울산광역시 동구 명덕3길15,울산광역시 동구,35.5235593,129.4316659,2019-09-18
"엔) 대형엔진적치장",시설 실내,울산광역시,동구,"사무용 건축물, 공장 및 복합건축물",국민건강증진법 제9조,,100000,052-209-4131,울산광역시 동구 명덕3길3,울산광역시 동구 명덕3길3,울산광역시 동구,35.5233221,129.4324389,2019-09-18
"엔) 도장6공장",시설 실내,울산광역시,동구,"사무용 건축물, 공장 및 복합건축물",국민건강증진법 제9조,,100000,052-209-4131,울산광역시 동구 명덕4길10,울산광역시 동구 명덕4길10,울산광역시 동구,35.5229866,129.4322312,2019-09-18
"엔) 목형창고",시설 실내,울산광역시,동구,"사무용 건축물, 공장 및 복합건축물",국민건강증진법 제9조,,100000,052-209-4131,울산광역시 동구 명덕5길11,울산광역시 동구 명덕5길11,울산광역시 동구,35.5243328,129.4321107,2019-09-18
"엔) 본관",시설 실내,울산광역시,동구,"사무용 건축물, 공장 및 복합건축물",국민건강증진법 제9조,,100000,052-209-4131,울산광역시 동구 명덕5길4,울산광역시 동구 명덕5길4,울산광역시 동구,35.5237319,129.4323183,2019-09-18
"엔) 엔진2공장식당",시설 실내,울산광역시,동구,"사무용 건축물, 공장 및 복합건축물",국민건강증진법 제9조,,100000,052-209-4131,울산광역시 동구 명덕6길12,울산광역시 동구 명덕6길12,울산광역시 동구,35.52328395,129.4317191,2019-09-18
"엔) 중형엔진2공장",시설 실내,울산광역시,동구,"사무용 건축물, 공장 및 복합건축물",국민건강증진법 제9조,,100000,052-209-4131,울산광역시 동구 명덕7길26,울산광역시 동구 명덕7길26,울산광역시 동구,35.52416958,129.4310537,2019-09-18
"엔) 중형조립적치장",시설 실내,울산광역시,동구,"사무용 건축물, 공장 및 복합건축물",국민건강증진법 제9조,,100000,052-209-4131,울산광역시 동구 명덕7길26,울산광역시 동구 명덕7길26,울산광역시 동구,35.52416958,129.4310537,2019-09-18
"엔) 프로펠라2",시설 실내,울산광역시,동구,"사무용 건축물, 공장 및 복합건축물",국민건강증진법 제9조,,100000,052-209-4131,울산광역시 동구 명덕로10,울산광역시 동구 명덕로10,울산광역시 동구,35.5229511,129.4309727,2019-09-18
"엔)생산기술관",시설 실내,울산광역시,동구,"사무용 건축물, 공장 및 복합건축물",국민건강증진법 제9조,,100000,052-209-4131,울산광역시 동구 문재1길38,울산광역시 동구 문재1길38,울산광역시 동구,35.4861249,129.4177074,2019-09-18
"엔)엔진2공장본관",시설 실내,울산광역시,동구,"사무용 건축물, 공장 및 복합건축물",국민건강증진법 제9조,,100000,052-209-4131,울산광역시 동구 문재2길59,울산광역시 동구 문재2길59,울산광역시 동구,35.4852147,129.4185399,2019-09-18
"엔진) 별관",시설 실내,울산광역시,동구,"사무용 건축물, 공장 및 복합건축물",국민건강증진법 제9조,,100000,052-209-4131,울산광역시 동구 문재3길25,울산광역시 동구 문재3길25,울산광역시 동구,35.4845776,129.4161485,2019-09-18
"엔진공장(대형엔진1)",시설 실내,울산광역시,동구,"사무용 건축물, 공장 및 복합건축물",국민건강증진법 제9조,,100000,052-209-4131,울산광역시 동구 문재3길40,울산광역시 동구 문재3길40,울산광역시 동구,35.4842622,129.4172934,2019-09-18
"연구동",시설 실내,울산광역시,동구,"사무용 건축물, 공장 및 복합건축물",국민건강증진법 제9조,,100000,052-209-4131,울산광역시 동구 문현1길15,울산광역시 동구 문현1길15,울산광역시 동구,35.4879587,129.4141261,2019-09-18
"영광오리숯불구이건물",시설 실내,울산광역시,동구,"사무용 건축물, 공장 및 복합건축물",국민건강증진법 제9조,,100000,052-209-4131,울산광역시 동구 문현2길41-1,울산광역시 동구 문현2길41-1,울산광역시 동구,35.4872989,129.4108152,2019-09-18
"영빈관 본관동",시설 실내,울산광역시,동구,"사무용 건축물, 공장 및 복합건축물",국민건강증진법 제9조,,100000,052-209-4131,울산광역시 동구 문현2길41-1,울산광역시 동구 문현2길41-1,울산광역시 동구,35.4872989,129.4108152,2019-09-18
"영창빌딩",시설 실내,울산광역시,동구,"사무용 건축물, 공장 및 복합건축물",국민건강증진법 제9조,,100000,052-209-4131,울산광역시 동구 문현로120,울산광역시 동구 문현로120,울산광역시 동구,35.4782234,129.4097641,2019-09-18
"예비군여단사무실",시설 실내,울산광역시,동구,"사무용 건축물, 공장 및 복합건축물",국민건강증진법 제9조,,100000,052-209-4131,울산광역시 동구 문현로120,울산광역시 동구 문현로120,울산광역시 동구,35.4782234,129.4097641,2019-09-18
"옥류탕건물",시설 실내,울산광역시,동구,"사무용 건축물, 공장 및 복합건축물",국민건강증진법 제9조,,100000,052-209-4131,울산광역시 동구 문현로120,울산광역시 동구 문현로120,울산광역시 동구,35.4782234,129.4097641,2019-09-18
"옥샘건물",시설 실내,울산광역시,동구,"사무용 건축물, 공장 및 복합건축물",국민건강증진법 제9조,,100000,052-209-4131,울산광역시 동구 문현로120,울산광역시 동구 문현로120,울산광역시 동구,35.4782234,129.4097641,2019-09-18
"올림피아드볼링센터",시설 실내,울산광역시,동구,"사무용 건축물, 공장 및 복합건축물",국민건강증진법 제9조,,100000,052-209-4131,울산광역시 동구 문현로120,울산광역시 동구 문현로120,울산광역시 동구,35.4782234,129.4097641,2019-09-18
"와바건물",시설 실내,울산광역시,동구,"사무용 건축물, 공장 및 복합건축물",국민건강증진법 제9조,,100000,052-209-4131,울산광역시 동구 문현로41,울산광역시 동구 문현로41,울산광역시 동구,35.4845617,129.413584,2019-09-18
"외업 2관",시설 실내,울산광역시,동구,"사무용 건축물, 공장 및 복합건축물",국민건강증진법 제9조,,100000,052-209-4131,울산광역시 동구 문현로88,울산광역시 동구 문현로88,울산광역시 동구,35.4810066,129.4110028,2019-09-18
"외업 3관",시설 실내,울산광역시,동구,"사무용 건축물, 공장 및 복합건축물",국민건강증진법 제9조,,100000,052-209-4131,울산광역시 동구 미포1길2,울산광역시 동구 미포1길2,울산광역시 동구,35.539919,129.428359,2019-09-18
"외업2관",시설 실내,울산광역시,동구,"사무용 건축물, 공장 및 복합건축물",국민건강증진법 제9조,,100000,052-209-4131,울산광역시 동구 바드래1길30,울산광역시 동구 바드래1길30,울산광역시 동구,35.51873825,129.4271118,2019-09-18
"외업3관 부속동",시설 실내,울산광역시,동구,"사무용 건축물, 공장 및 복합건축물",국민건강증진법 제9조,,100000,052-209-4131,울산광역시 동구 바드래5길24,울산광역시 동구 바드래5길24,울산광역시 동구,35.51722122,129.431567,2019-09-18
"외업자재창고",시설 실내,울산광역시,동구,"사무용 건축물, 공장 및 복합건축물",국민건강증진법 제9조,,100000,052-209-4131,울산광역시 동구 바드래길93,울산광역시 동구 바드래길93,울산광역시 동구,35.5157399,129.4267063,2019-09-18
"용궁건물",시설 실내,울산광역시,동구,"사무용 건축물, 공장 및 복합건축물",국민건강증진법 제9조,,100000,052-209-4131,울산광역시 동구 방어진순환도로 100,울산광역시 동구 방어진순환도로 100,울산광역시 동구,35.51139821,129.3983926,2019-09-18
"우경식품건물",시설 실내,울산광역시,동구,"사무용 건축물, 공장 및 복합건축물",국민건강증진법 제9조,,100000,052-209-4131,울산광역시 동구 방어진순환도로 100,울산광역시 동구 방어진순환도로 100,울산광역시 동구,35.51139821,129.3983926,2019-09-18
"우리은행건물",시설 실내,울산광역시,동구,"사무용 건축물, 공장 및 복합건축물",국민건강증진법 제9조,,100000,052-209-4131,울산광역시 동구 방어진순환도로 100,울산광역시 동구 방어진순환도로 100,울산광역시 동구,35.51139821,129.3983926,2019-09-18
"우바비앙카건물",시설 실내,울산광역시,동구,"사무용 건축물, 공장 및 복합건축물",국민건강증진법 제9조,,100000,052-209-4131,울산광역시 동구 방어진순환도로 100,울산광역시 동구 방어진순환도로 100,울산광역시 동구,35.51139821,129.3983926,2019-09-18
"울산동부신협",시설 실내,울산광역시,동구,"사무용 건축물, 공장 및 복합건축물",국민건강증진법 제9조,,100000,052-209-4131,울산광역시 동구 방어진순환도로 100,울산광역시 동구 방어진순환도로 100,울산광역시 동구,35.51139821,129.3983926,2019-09-18
"울산여객",시설 실내,울산광역시,동구,"사무용 건축물, 공장 및 복합건축물",국민건강증진법 제9조,,100000,052-209-4131,울산광역시 동구 방어진순환도로 100,울산광역시 동구 방어진순환도로 100,울산광역시 동구,35.51139821,129.3983926,2019-09-18
"월봉시장",시설 실내,울산광역시,동구,"사무용 건축물, 공장 및 복합건축물",국민건강증진법 제9조,,100000,052-209-4131,울산광역시 동구 방어진순환도로 100,울산광역시 동구 방어진순환도로 100,울산광역시 동구,35.51139821,129.3983926,2019-09-18
"웰빙사우나건물",시설 실내,울산광역시,동구,"사무용 건축물, 공장 및 복합건축물",국민건강증진법 제9조,,100000,052-209-4131,울산광역시 동구 방어진순환도로 100,울산광역시 동구 방어진순환도로 100,울산광역시 동구,35.51139821,129.3983926,2019-09-18
"유압공장",시설 실내,울산광역시,동구,"사무용 건축물, 공장 및 복합건축물",국민건강증진법 제9조,,100000,052-209-4131,울산광역시 동구 방어진순환도로 100,울산광역시 동구 방어진순환도로 100,울산광역시 동구,35.51139821,129.3983926,2019-09-18
"은빛문화원(은빛일산지점)",시설 실내,울산광역시,동구,"사무용 건축물, 공장 및 복합건축물",국민건강증진법 제9조,,100000,052-209-4131,울산광역시 동구 방어진순환도로 100,울산광역시 동구 방어진순환도로 100,울산광역시 동구,35.51139821,129.3983926,2019-09-18
"의장1공장",시설 실내,울산광역시,동구,"사무용 건축물, 공장 및 복합건축물",국민건강증진법 제9조,,100000,052-209-4131,울산광역시 동구 방어진순환도로 100,울산광역시 동구 방어진순환도로 100,울산광역시 동구,35.51139821,129.3983926,2019-09-18
"의장2공장",시설 실내,울산광역시,동구,"사무용 건축물, 공장 및 복합건축물",국민건강증진법 제9조,,100000,052-209-4131,울산광역시 동구 방어진순환도로 100,울산광역시 동구 방어진순환도로 100,울산광역시 동구,35.51139821,129.3983926,2019-09-18
"의장3공장",시설 실내,울산광역시,동구,"사무용 건축물, 공장 및 복합건축물",국민건강증진법 제9조,,100000,052-209-4131,울산광역시 동구 방어진순환도로 100,울산광역시 동구 방어진순환도로 100,울산광역시 동구,35.51139821,129.3983926,2019-09-18
"의장5공장",시설 실내,울산광역시,동구,"사무용 건축물, 공장 및 복합건축물",국민건강증진법 제9조,,100000,052-209-4131,울산광역시 동구 방어진순환도로 1000,울산광역시 동구 방어진순환도로 1000,울산광역시 동구,35.503281,129.4358669,2019-09-18
"의장6공장",시설 실내,울산광역시,동구,"사무용 건축물, 공장 및 복합건축물",국민건강증진법 제9조,,100000,052-209-4131,울산광역시 동구 방어진순환도로 1000,울산광역시 동구 방어진순환도로 1000,울산광역시 동구,35.503281,129.4358669,2019-09-18
"의장창고",시설 실내,울산광역시,동구,"사무용 건축물, 공장 및 복합건축물",국민건강증진법 제9조,,100000,052-209-4131,울산광역시 동구 방어진순환도로 1000,울산광역시 동구 방어진순환도로 1000,울산광역시 동구,35.5032844,129.4358669,2019-09-18
"이모야해장국건물",시설 실내,울산광역시,동구,"사무용 건축물, 공장 및 복합건축물",국민건강증진법 제9조,,100000,052-209-4131,울산광역시 동구 방어진순환도로 1000,울산광역시 동구 방어진순환도로 1000,울산광역시 동구,35.5032844,129.4358669,2019-09-18
"이제마독서실건물",시설 실내,울산광역시,동구,"사무용 건축물, 공장 및 복합건축물",국민건강증진법 제9조,,100000,052-209-4131,울산광역시 동구 방어진순환도로 1000,울산광역시 동구 방어진순환도로 1000,울산광역시 동구,35.5032844,129.4358669,2019-09-18
"이지헬스클럽건물",시설 실내,울산광역시,동구,"사무용 건축물, 공장 및 복합건축물",국민건강증진법 제9조,,100000,052-209-4131,울산광역시 동구 방어진순환도로 1000,울산광역시 동구 방어진순환도로 1000,울산광역시 동구,35.5032844,129.4358669,2019-09-18
"일빌딩",시설 실내,울산광역시,동구,"사무용 건축물, 공장 및 복합건축물",국민건강증진법 제9조,,100000,052-209-4131,울산광역시 동구 방어진순환도로 1000,울산광역시 동구 방어진순환도로 1000,울산광역시 동구,35.5032844,129.4358669,2019-09-18
"일산빌딩",시설 실내,울산광역시,동구,"사무용 건축물, 공장 및 복합건축물",국민건강증진법 제9조,,100000,052-209-4131,울산광역시 동구 방어진순환도로 1000,울산광역시 동구 방어진순환도로 1000,울산광역시 동구,35.5032844,129.4358669,2019-09-18
"일산새마을금고",시설 실내,울산광역시,동구,"사무용 건축물, 공장 및 복합건축물",국민건강증진법 제9조,,100000,052-209-4131,울산광역시 동구 방어진순환도로 1000,울산광역시 동구 방어진순환도로 1000,울산광역시 동구,35.5032844,129.4358669,2019-09-18
"일산새마을금고화정지점",시설 실내,울산광역시,동구,"사무용 건축물, 공장 및 복합건축물",국민건강증진법 제9조,,100000,052-209-4131,울산광역시 동구 방어진순환도로 1000,울산광역시 동구 방어진순환도로 1000,울산광역시 동구,35.5032844,129.4358669,2019-09-18
"일산수산물판매센터",시설 실내,울산광역시,동구,"사무용 건축물, 공장 및 복합건축물",국민건강증진법 제9조,,100000,052-209-4131,울산광역시 동구 방어진순환도로 1000,울산광역시 동구 방어진순환도로 1000,울산광역시 동구,35.5032844,129.4358669,2019-09-18
"일산웨딩홀",시설 실내,울산광역시,동구,"사무용 건축물, 공장 및 복합건축물",국민건강증진법 제9조,,100000,052-209-4131,울산광역시 동구 방어진순환도로 1000,울산광역시 동구 방어진순환도로 1000,울산광역시 동구,35.5032844,129.4358669,2019-09-18
"일원빌딩",시설 실내,울산광역시,동구,"사무용 건축물, 공장 및 복합건축물",국민건강증진법 제9조,,100000,052-209-4131,울산광역시 동구 방어진순환도로 1000,울산광역시 동구 방어진순환도로 1000,울산광역시 동구,35.5032844,129.4358669,2019-09-18
"임페리얼pc방건물",시설 실내,울산광역시,동구,"사무용 건축물, 공장 및 복합건축물",국민건강증진법 제9조,,100000,052-209-4131,울산광역시 동구 방어진순환도로 1000,울산광역시 동구 방어진순환도로 1000,울산광역시 동구,35.5032844,129.4358669,2019-09-18
"임항공장",시설 실내,울산광역시,동구,"사무용 건축물, 공장 및 복합건축물",국민건강증진법 제9조,,100000,052-209-4131,울산광역시 동구 방어진순환도로 1000,울산광역시 동구 방어진순환도로 1000,울산광역시 동구,35.5032844,129.4358669,2019-09-18
"자재창고",시설 실내,울산광역시,동구,"사무용 건축물, 공장 및 복합건축물",국민건강증진법 제9조,,100000,052-209-4131,울산광역시 동구 방어진순환도로 1000,울산광역시 동구 방어진순환도로 1000,울산광역시 동구,35.5032844,129.4358669,2019-09-18
"장돌뱅이건물",시설 실내,울산광역시,동구,"사무용 건축물, 공장 및 복합건축물",국민건강증진법 제9조,,100000,052-209-4131,울산광역시 동구 방어진순환도로 1000,울산광역시 동구 방어진순환도로 1000,울산광역시 동구,35.5032844,129.4358669,2019-09-18
"장비운영부",시설 실내,울산광역시,동구,"사무용 건축물, 공장 및 복합건축물",국민건강증진법 제9조,,100000,052-209-4131,울산광역시 동구 방어진순환도로 1000,울산광역시 동구 방어진순환도로 1000,울산광역시 동구,35.5032844,129.4358669,2019-09-18
"재능교육건물",시설 실내,울산광역시,동구,"사무용 건축물, 공장 및 복합건축물",국민건강증진법 제9조,,100000,052-209-4131,울산광역시 동구 방어진순환도로 1000,울산광역시 동구 방어진순환도로 1000,울산광역시 동구,35.5032844,129.4358669,2019-09-18
"전) 변압기제공장",시설 실내,울산광역시,동구,"사무용 건축물, 공장 및 복합건축물",국민건강증진법 제9조,,100000,052-209-4131,울산광역시 동구 방어진순환도로 1000,울산광역시 동구 방어진순환도로 1000,울산광역시 동구,35.5032844,129.4358669,2019-09-18
"전) 원자재창고",시설 실내,울산광역시,동구,"사무용 건축물, 공장 및 복합건축물",국민건강증진법 제9조,,100000,052-209-4131,울산광역시 동구 방어진순환도로 1000,울산광역시 동구 방어진순환도로 1000,울산광역시 동구,35.5032844,129.4358669,2019-09-18
"전) 전력제어부속공장",시설 실내,울산광역시,동구,"사무용 건축물, 공장 및 복합건축물",국민건강증진법 제9조,,100000,052-209-4131,울산광역시 동구 방어진순환도로 1000,울산광역시 동구 방어진순환도로 1000,울산광역시 동구,35.5032844,129.4358669,2019-09-18
"전) 회전기출하동",시설 실내,울산광역시,동구,"사무용 건축물, 공장 및 복합건축물",국민건강증진법 제9조,,100000,052-209-4131,울산광역시 동구 방어진순환도로 1000,울산광역시 동구 방어진순환도로 1000,울산광역시 동구,35.5032844,129.4358669,2019-09-18
"전산실동(3공장)-한국프렌지",시설 실내,울산광역시,동구,"사무용 건축물, 공장 및 복합건축물",국민건강증진법 제9조,,100000,052-209-4131,울산광역시 동구 방어진순환도로 1000,울산광역시 동구 방어진순환도로 1000,울산광역시 동구,35.5032844,129.4358669,2019-09-18
"전전) 본관",시설 실내,울산광역시,동구,"사무용 건축물, 공장 및 복합건축물",국민건강증진법 제9조,,100000,052-209-4131,울산광역시 동구 방어진순환도로 1000,울산광역시 동구 방어진순환도로 1000,울산광역시 동구,35.5032844,129.4358669,2019-09-18
"전전) 신관",시설 실내,울산광역시,동구,"사무용 건축물, 공장 및 복합건축물",국민건강증진법 제9조,,100000,052-209-4131,울산광역시 동구 방어진순환도로 1000,울산광역시 동구 방어진순환도로 1000,울산광역시 동구,35.5032844,129.4358669,2019-09-18
"전전)변압기도장공장",시설 실내,울산광역시,동구,"사무용 건축물, 공장 및 복합건축물",국민건강증진법 제9조,,100000,052-209-4131,울산광역시 동구 방어진순환도로 1000,울산광역시 동구 방어진순환도로 1000,울산광역시 동구,35.5032844,129.4358669,2019-09-18
"전전)전전식당동",시설 실내,울산광역시,동구,"사무용 건축물, 공장 및 복합건축물",국민건강증진법 제9조,,100000,052-209-4131,울산광역시 동구 방어진순환도로 1000,울산광역시 동구 방어진순환도로 1000,울산광역시 동구,35.5032844,129.4358669,2019-09-18
"전천후작업장1",시설 실내,울산광역시,동구,"사무용 건축물, 공장 및 복합건축물",국민건강증진법 제9조,,100000,052-209-4131,울산광역시 동구 방어진순환도로 1000,울산광역시 동구 방어진순환도로 1000,울산광역시 동구,35.5032844,129.4358669,2019-09-18
"전천후작업장2",시설 실내,울산광역시,동구,"사무용 건축물, 공장 및 복합건축물",국민건강증진법 제9조,,100000,052-209-4131,울산광역시 동구 방어진순환도로 1000,울산광역시 동구 방어진순환도로 1000,울산광역시 동구,35.5032844,129.4358669,2019-09-18
"전하맨션",시설 실내,울산광역시,동구,"사무용 건축물, 공장 및 복합건축물",국민건강증진법 제9조,,100000,052-209-4131,울산광역시 동구 방어진순환도로 1000,울산광역시 동구 방어진순환도로 1000,울산광역시 동구,35.5032844,129.4358669,2019-09-18
"전하상가아파트",시설 실내,울산광역시,동구,"사무용 건축물, 공장 및 복합건축물",국민건강증진법 제9조,,100000,052-209-4131,울산광역시 동구 방어진순환도로 1000,울산광역시 동구 방어진순환도로 1000,울산광역시 동구,35.5032844,129.4358669,2019-09-18
"정록빌딩",시설 실내,울산광역시,동구,"사무용 건축물, 공장 및 복합건축물",국민건강증진법 제9조,,100000,052-209-4131,울산광역시 동구 방어진순환도로 1000,울산광역시 동구 방어진순환도로 1000,울산광역시 동구,35.5032844,129.4358669,2019-09-18
"정민빌딩",시설 실내,울산광역시,동구,"사무용 건축물, 공장 및 복합건축물",국민건강증진법 제9조,,100000,052-209-4131,울산광역시 동구 방어진순환도로 1000,울산광역시 동구 방어진순환도로 1000,울산광역시 동구,35.5032844,129.4358669,2019-09-18
"정안탕건물",시설 실내,울산광역시,동구,"사무용 건축물, 공장 및 복합건축물",국민건강증진법 제9조,,100000,052-209-4131,울산광역시 동구 방어진순환도로 1000,울산광역시 동구 방어진순환도로 1000,울산광역시 동구,35.5032844,129.4358669,2019-09-18
"조) 별관",시설 실내,울산광역시,동구,"사무용 건축물, 공장 및 복합건축물",국민건강증진법 제9조,,100000,052-209-4131,울산광역시 동구 방어진순환도로 1000,울산광역시 동구 방어진순환도로 1000,울산광역시 동구,35.5032844,129.4358669,2019-09-18
"조) 본관식당",시설 실내,울산광역시,동구,"사무용 건축물, 공장 및 복합건축물",국민건강증진법 제9조,,100000,052-209-4131,울산광역시 동구 방어진순환도로 1000,울산광역시 동구 방어진순환도로 1000,울산광역시 동구,35.5032844,129.4358669,2019-09-18
"조립1공장",시설 실내,울산광역시,동구,"사무용 건축물, 공장 및 복합건축물",국민건강증진법 제9조,,100000,052-209-4131,울산광역시 동구 방어진순환도로 1000,울산광역시 동구 방어진순환도로 1000,울산광역시 동구,35.5032844,129.4358669,2019-09-18
"조립2공장",시설 실내,울산광역시,동구,"사무용 건축물, 공장 및 복합건축물",국민건강증진법 제9조,,100000,052-209-4131,울산광역시 동구 방어진순환도로 1000,울산광역시 동구 방어진순환도로 1000,울산광역시 동구,35.5032844,129.4358669,2019-09-18
"조마루뼈다귀건물",시설 실내,울산광역시,동구,"사무용 건축물, 공장 및 복합건축물",국민건강증진법 제9조,,100000,052-209-4131,울산광역시 동구 방어진순환도로 1000,울산광역시 동구 방어진순환도로 1000,울산광역시 동구,35.5032844,129.4358669,2019-09-18
"㈜유진버스",시설 실내,울산광역시,동구,"사무용 건축물, 공장 및 복합건축물",국민건강증진법 제9조,,100000,052-209-4131,울산광역시 동구 방어진순환도로 1000,울산광역시 동구 방어진순환도로 1000,울산광역시 동구,35.5032844,129.4358669,2019-09-18
"㈜한성교통",시설 실내,울산광역시,동구,"사무용 건축물, 공장 및 복합건축물",국민건강증진법 제9조,,100000,052-209-4131,울산광역시 동구 방어진순환도로 1000,울산광역시 동구 방어진순환도로 1000,울산광역시 동구,35.5032844,129.4358669,2019-09-18
"중원빌딩",시설 실내,울산광역시,동구,"사무용 건축물, 공장 및 복합건축물",국민건강증진법 제9조,,100000,052-209-4131,울산광역시 동구 방어진순환도로 1000,울산광역시 동구 방어진순환도로 1000,울산광역시 동구,35.5032844,129.4358669,2019-09-18
"중조관",시설 실내,울산광역시,동구,"사무용 건축물, 공장 및 복합건축물",국민건강증진법 제9조,,100000,052-209-4131,울산광역시 동구 방어진순환도로 1000,울산광역시 동구 방어진순환도로 1000,울산광역시 동구,35.5032844,129.4358669,2019-09-18
"중조립공장",시설 실내,울산광역시,동구,"사무용 건축물, 공장 및 복합건축물",국민건강증진법 제9조,,100000,052-209-4131,울산광역시 동구 방어진순환도로 1000,울산광역시 동구 방어진순환도로 1000,울산광역시 동구,35.5032844,129.4358669,2019-09-18
"지체장애인동구지회",시설 실내,울산광역시,동구,"사무용 건축물, 공장 및 복합건축물",국민건강증진법 제9조,,100000,052-209-4131,울산광역시 동구 방어진순환도로 1000,울산광역시 동구 방어진순환도로 1000,울산광역시 동구,35.5032844,129.4358669,2019-09-18
"청운학원건물",시설 실내,울산광역시,동구,"사무용 건축물, 공장 및 복합건축물",국민건강증진법 제9조,,100000,052-209-4131,울산광역시 동구 방어진순환도로 1000,울산광역시 동구 방어진순환도로 1000,울산광역시 동구,35.5032844,129.4358669,2019-09-18
"체 육 관",시설 실내,울산광역시,동구,"사무용 건축물, 공장 및 복합건축물",국민건강증진법 제9조,,100000,052-209-4131,울산광역시 동구 방어진순환도로 400,울산광역시 동구 방어진순환도로 400,울산광역시 동구,35.4827412,129.4060105,2019-09-18
"초가마당건물",시설 실내,울산광역시,동구,"사무용 건축물, 공장 및 복합건축물",국민건강증진법 제9조,,100000,052-209-4131,울산광역시 동구 방어진순환도로 400,울산광역시 동구 방어진순환도로 400,울산광역시 동구,35.4827412,129.4060105,2019-09-18
"칼라미술학원건물",시설 실내,울산광역시,동구,"사무용 건축물, 공장 및 복합건축물",국민건강증진법 제9조,,100000,052-209-4131,울산광역시 동구 방어진순환도로 400,울산광역시 동구 방어진순환도로 400,울산광역시 동구,35.4827412,129.4060105,2019-09-18
"커피버즈건물",시설 실내,울산광역시,동구,"사무용 건축물, 공장 및 복합건축물",국민건강증진법 제9조,,100000,052-209-4131,울산광역시 동구 방어진순환도로 400,울산광역시 동구 방어진순환도로 400,울산광역시 동구,35.4827412,129.4060105,2019-09-18
"케이디빌딩(빠리바게트)",시설 실내,울산광역시,동구,"사무용 건축물, 공장 및 복합건축물",국민건강증진법 제9조,,100000,052-209-4131,울산광역시 동구 방어진순환도로 400,울산광역시 동구 방어진순환도로 400,울산광역시 동구,35.4827412,129.4060105,2019-09-18
"코사마트건물",시설 실내,울산광역시,동구,"사무용 건축물, 공장 및 복합건축물",국민건강증진법 제9조,,100000,052-209-4131,울산광역시 동구 방어진순환도로 400,울산광역시 동구 방어진순환도로 400,울산광역시 동구,35.4827412,129.4060105,2019-09-18
"코스모스빌딩",시설 실내,울산광역시,동구,"사무용 건축물, 공장 및 복합건축물",국민건강증진법 제9조,,100000,052-209-4131,울산광역시 동구 방어진순환도로 400,울산광역시 동구 방어진순환도로 400,울산광역시 동구,35.4827412,129.4060105,2019-09-18
"큰가람빌딩(본가어탕)",시설 실내,울산광역시,동구,"사무용 건축물, 공장 및 복합건축물",국민건강증진법 제9조,,100000,052-209-4131,울산광역시 동구 방어진순환도로 400,울산광역시 동구 방어진순환도로 400,울산광역시 동구,35.4827412,129.4060105,2019-09-18
"테라스파크",시설 실내,울산광역시,동구,"사무용 건축물, 공장 및 복합건축물",국민건강증진법 제9조,,100000,052-209-4131,울산광역시 동구 방어진순환도로 400,울산광역시 동구 방어진순환도로 400,울산광역시 동구,35.4827412,129.4060105,2019-09-18
"통합내자 창고(1)",시설 실내,울산광역시,동구,"사무용 건축물, 공장 및 복합건축물",국민건강증진법 제9조,,100000,052-209-4131,울산광역시 동구 방어진순환도로 400,울산광역시 동구 방어진순환도로 400,울산광역시 동구,35.4827412,129.4060105,2019-09-18
"통합내자 창고(2)",시설 실내,울산광역시,동구,"사무용 건축물, 공장 및 복합건축물",국민건강증진법 제9조,,100000,052-209-4131,울산광역시 동구 방어진순환도로 400,울산광역시 동구 방어진순환도로 400,울산광역시 동구,35.4827412,129.4060105,2019-09-18
"통합내자 창고(3)",시설 실내,울산광역시,동구,"사무용 건축물, 공장 및 복합건축물",국민건강증진법 제9조,,100000,052-209-4131,울산광역시 동구 방어진순환도로1133,울산광역시 동구 방어진순환도로1133,울산광역시 동구,35.5393115,129.4247959,2019-09-18
"통합물류관",시설 실내,울산광역시,동구,"사무용 건축물, 공장 및 복합건축물",국민건강증진법 제9조,,100000,052-209-4131,울산광역시 동구 방어진순환도로1145,울산광역시 동구 방어진순환도로1145,울산광역시 동구,35.5392332,129.4237899,2019-09-18
"통합연구동",시설 실내,울산광역시,동구,"사무용 건축물, 공장 및 복합건축물",국민건강증진법 제9조,,100000,052-209-4131,울산광역시 동구 방어진순환도로442,울산광역시 동구 방어진순환도로442,울산광역시 동구,35.4874968,129.4158526,2019-09-18
"통합외자창고",시설 실내,울산광역시,동구,"사무용 건축물, 공장 및 복합건축물",국민건강증진법 제9조,,100000,052-209-4131,울산광역시 동구 방어진순환도로470,울산광역시 동구 방어진순환도로470,울산광역시 동구,35.511801,129.430323,2019-09-18
"특) 6도크식당",시설 실내,울산광역시,동구,"사무용 건축물, 공장 및 복합건축물",국민건강증진법 제9조,,100000,052-209-4131,울산광역시 동구 방어진순환도로606,울산광역시 동구 방어진순환도로606,울산광역시 동구,35.4958002,129.4278073,2019-09-18
"특) 자재창고",시설 실내,울산광역시,동구,"사무용 건축물, 공장 및 복합건축물",국민건강증진법 제9조,,100000,052-209-4131,울산광역시 동구 방어진순환도로609,울산광역시 동구 방어진순환도로609,울산광역시 동구,35.4962281,129.427211,2019-09-18
"특) 조립공장",시설 실내,울산광역시,동구,"사무용 건축물, 공장 및 복합건축물",국민건강증진법 제9조,,100000,052-209-4131,울산광역시 동구 방어진순환도로674,울산광역시 동구 방어진순환도로674,울산광역시 동구,35.50181799,129.4291939,2019-09-18
"특수선 본관",시설 실내,울산광역시,동구,"사무용 건축물, 공장 및 복합건축물",국민건강증진법 제9조,,100000,052-209-4131,울산광역시 동구 방어진순환도로693-1,울산광역시 동구 방어진순환도로693-1,울산광역시 동구,35.5036882,129.4291131,2019-09-18
"파리바게트건물",시설 실내,울산광역시,동구,"사무용 건축물, 공장 및 복합건축물",국민건강증진법 제9조,,100000,052-209-4131,울산광역시 동구 방어진순환도로739,울산광역시 동구 방어진순환도로739,울산광역시 동구,35.507816,129.4298068,2019-09-18
"판계공장",시설 실내,울산광역시,동구,"사무용 건축물, 공장 및 복합건축물",국민건강증진법 제9조,,100000,052-209-4131,울산광역시 동구 방어진순환도로741,울산광역시 동구 방어진순환도로741,울산광역시 동구,35.5079485,129.4298797,2019-09-18
"판넬분식식당",시설 실내,울산광역시,동구,"사무용 건축물, 공장 및 복합건축물",국민건강증진법 제9조,,100000,052-209-4131,울산광역시 동구 방어진순환도로797,울산광역시 동구 방어진순환도로797,울산광역시 동구,35.5130254,129.4307259,2019-09-18
"푸르지오1단지상가",시설 실내,울산광역시,동구,"사무용 건축물, 공장 및 복합건축물",국민건강증진법 제9조,,100000,052-209-4131,울산광역시 동구 방어진순환도로871,울산광역시 동구 방어진순환도로871,울산광역시 동구,35.51929174,129.4300513,2019-09-18
"프로펠라공장",시설 실내,울산광역시,동구,"사무용 건축물, 공장 및 복합건축물",국민건강증진법 제9조,,100000,052-209-4131,울산광역시 동구 보성길8,울산광역시 동구 보성길8,울산광역시 동구,35.4972243,129.4293976,2019-09-18
"플) 본관",시설 실내,울산광역시,동구,"사무용 건축물, 공장 및 복합건축물",국민건강증진법 제9조,,100000,052-209-4131,울산광역시 동구 봉수로104,울산광역시 동구 봉수로104,울산광역시 동구,35.49687023,129.418397,2019-09-18
"플) 신관",시설 실내,울산광역시,동구,"사무용 건축물, 공장 및 복합건축물",국민건강증진법 제9조,,100000,052-209-4131,울산광역시 동구 봉수로106,울산광역시 동구 봉수로106,울산광역시 동구,35.49716701,129.4183354,2019-09-18
"플) 자재공장",시설 실내,울산광역시,동구,"사무용 건축물, 공장 및 복합건축물",국민건강증진법 제9조,,100000,052-209-4131,울산광역시 동구 봉수로250,울산광역시 동구 봉수로250,울산광역시 동구,35.5091746,129.4216445,2019-09-18
"플) 플랜트도장공장",시설 실내,울산광역시,동구,"사무용 건축물, 공장 및 복합건축물",국민건강증진법 제9조,,100000,052-209-4131,울산광역시 동구 봉수로370,울산광역시 동구 봉수로370,울산광역시 동구,35.517991,129.4258224,2019-09-18
"플) 플랜트성형공장",시설 실내,울산광역시,동구,"사무용 건축물, 공장 및 복합건축물",국민건강증진법 제9조,,100000,052-209-4131,울산광역시 동구 봉수로450,울산광역시 동구 봉수로450,울산광역시 동구,35.525127,129.4267744,2019-09-18
"플) 플랜트제관공장",시설 실내,울산광역시,동구,"사무용 건축물, 공장 및 복합건축물",국민건강증진법 제9조,,100000,052-209-4131,울산광역시 동구 성끝길2,울산광역시 동구 성끝길2,울산광역시 동구,35.48469227,129.429656,2019-09-18
"플)플랜트생산관",시설 실내,울산광역시,동구,"사무용 건축물, 공장 및 복합건축물",국민건강증진법 제9조,,100000,052-209-4131,울산광역시 동구 안산로 50,울산광역시 동구 안산로 50,울산광역시 동구,35.5425475,129.431623,2019-09-18
"플랜트본관",시설 실내,울산광역시,동구,"사무용 건축물, 공장 및 복합건축물",국민건강증진법 제9조,,100000,052-209-4131,울산광역시 동구 안산로 50,울산광역시 동구 안산로 50,울산광역시 동구,35.5425475,129.431623,2019-09-18
"하나빌딩(강호동백정)",시설 실내,울산광역시,동구,"사무용 건축물, 공장 및 복합건축물",국민건강증진법 제9조,,100000,052-209-4131,울산광역시 동구 안산로 50,울산광역시 동구 안산로 50,울산광역시 동구,35.5425475,129.431623,2019-09-18
"하모니웨딩홀",시설 실내,울산광역시,동구,"사무용 건축물, 공장 및 복합건축물",국민건강증진법 제9조,,100000,052-209-4131,울산광역시 동구 옥류로2,울산광역시 동구 옥류로2,울산광역시 동구,35.539254,129.427023,2019-09-18
"하이마트동구일산점",시설 실내,울산광역시,동구,"사무용 건축물, 공장 및 복합건축물",국민건강증진법 제9조,,100000,052-209-4131,울산광역시 동구 옥류로3,울산광역시 동구 옥류로3,울산광역시 동구,35.539507,129.426796,2019-09-18
"학성버스",시설 실내,울산광역시,동구,"사무용 건축물, 공장 및 복합건축물",국민건강증진법 제9조,,100000,052-209-4131,울산광역시 동구 옥류로49,울산광역시 동구 옥류로49,울산광역시 동구,35.543255,129.426029,2019-09-18
"한국빌딩",시설 실내,울산광역시,동구,"사무용 건축물, 공장 및 복합건축물",국민건강증진법 제9조,,100000,052-209-4131,울산광역시 동구 옥류로9,울산광역시 동구 옥류로9,울산광역시 동구,35.539726,129.426579,2019-09-18
"한국전력공사",시설 실내,울산광역시,동구,"사무용 건축물, 공장 및 복합건축물",국민건강증진법 제9조,,100000,052-209-4131,울산광역시 동구 월봉11길31,울산광역시 동구 월봉11길31,울산광역시 동구,35.4932623,129.4210718,2019-09-18
"한마음마트",시설 실내,울산광역시,동구,"사무용 건축물, 공장 및 복합건축물",국민건강증진법 제9조,,100000,052-209-4131,울산광역시 동구 월봉로14-1,울산광역시 동구 월봉로14-1,울산광역시 동구,35.495115,129.4203406,2019-09-18
"한마음새마을금고",시설 실내,울산광역시,동구,"사무용 건축물, 공장 및 복합건축물",국민건강증진법 제9조,,100000,052-209-4131,울산광역시 동구 월봉로22,울산광역시 동구 월봉로22,울산광역시 동구,35.4951334,129.4209174,2019-09-18
"한마음회관",시설 실내,울산광역시,동구,"사무용 건축물, 공장 및 복합건축물",국민건강증진법 제9조,,100000,052-209-4131,울산광역시 동구 월봉로29,울산광역시 동구 월봉로29,울산광역시 동구,35.4954446,129.4218927,2019-09-18
"한성빌딩",시설 실내,울산광역시,동구,"사무용 건축물, 공장 및 복합건축물",국민건강증진법 제9조,,100000,052-209-4131,울산광역시 동구 월봉로30,울산광역시 동구 월봉로30,울산광역시 동구,35.4951396,129.4218432,2019-09-18
"한우리 회관(1)",시설 실내,울산광역시,동구,"사무용 건축물, 공장 및 복합건축물",국민건강증진법 제9조,,100000,052-209-4131,울산광역시 동구 일산진11길150,울산광역시 동구 일산진11길150,울산광역시 동구,35.500671,129.4346995,2019-09-18
"함양옻닭건물",시설 실내,울산광역시,동구,"사무용 건축물, 공장 및 복합건축물",국민건강증진법 제9조,,100000,052-209-4131,울산광역시 동구 전하로14,울산광역시 동구 전하로14,울산광역시 동구,35.5125349,129.4292236,2019-09-18
"해뜨는해수월드",시설 실내,울산광역시,동구,"사무용 건축물, 공장 및 복합건축물",국민건강증진법 제9조,,100000,052-209-4131,울산광역시 동구 전하로18,울산광역시 동구 전하로18,울산광역시 동구,35.5125834,129.4288563,2019-09-18
"해송빌딩",시설 실내,울산광역시,동구,"사무용 건축물, 공장 및 복합건축물",국민건강증진법 제9조,,100000,052-209-4131,울산광역시 동구 전하로3,울산광역시 동구 전하로3,울산광역시 동구,35.508801,129.4265717,2019-09-18
"해양기술관",시설 실내,울산광역시,동구,"사무용 건축물, 공장 및 복합건축물",국민건강증진법 제9조,,100000,052-209-4131,울산광역시 동구 전하로30,울산광역시 동구 전하로30,울산광역시 동구,35.5126868,129.427349,2019-09-18
"해양별관",시설 실내,울산광역시,동구,"사무용 건축물, 공장 및 복합건축물",국민건강증진법 제9조,,100000,052-209-4131,울산광역시 동구 제기천길7-14,울산광역시 동구 제기천길7-14,울산광역시 동구,35.5387915,129.425551,2019-09-18
"해양설계관",시설 실내,울산광역시,동구,"사무용 건축물, 공장 및 복합건축물",국민건강증진법 제9조,,100000,052-209-4131,울산광역시 동구 진성11길 97,울산광역시 동구 진성11길 97,울산광역시 동구,35.5096311,129.427533,2019-09-18
"해양신관",시설 실내,울산광역시,동구,"사무용 건축물, 공장 및 복합건축물",국민건강증진법 제9조,,100000,052-209-4131,울산광역시 동구 진성13길67,울산광역시 동구 진성13길67,울산광역시 동구,35.5091818,129.4262762,2019-09-18
"해양제관공장",시설 실내,울산광역시,동구,"사무용 건축물, 공장 및 복합건축물",국민건강증진법 제9조,,100000,052-209-4131,울산광역시 동구 진성14길122,울산광역시 동구 진성14길122,울산광역시 동구,35.511179,129.426281,2019-09-18
"헌산빌딩",시설 실내,울산광역시,동구,"사무용 건축물, 공장 및 복합건축물",국민건강증진법 제9조,,100000,052-209-4131,울산광역시 동구 진성14길128,울산광역시 동구 진성14길128,울산광역시 동구,35.5114786,129.426303,2019-09-18
"헬로우풋살건물",시설 실내,울산광역시,동구,"사무용 건축물, 공장 및 복합건축물",국민건강증진법 제9조,,100000,052-209-4131,울산광역시 동구 진성14길77,울산광역시 동구 진성14길77,울산광역시 동구,35.508869,129.425413,2019-09-18
"현대아파트상가",시설 실내,울산광역시,동구,"사무용 건축물, 공장 및 복합건축물",국민건강증진법 제9조,,100000,052-209-4131,울산광역시 동구 진성14길90,울산광역시 동구 진성14길90,울산광역시 동구,35.5092877,129.426008,2019-09-18
"현대해상건물",시설 실내,울산광역시,동구,"사무용 건축물, 공장 및 복합건축물",국민건강증진법 제9조,,100000,052-209-4131,울산광역시 동구 진성14길97,울산광역시 동구 진성14길97,울산광역시 동구,35.509885,129.425707,2019-09-18
"현대홈마트건물",시설 실내,울산광역시,동구,"사무용 건축물, 공장 및 복합건축물",국민건강증진법 제9조,,100000,052-209-4131,울산광역시 동구 진성2길16,울산광역시 동구 진성2길16,울산광역시 동구,35.5114196,129.4294022,2019-09-18
"현대홈타운상가",시설 실내,울산광역시,동구,"사무용 건축물, 공장 및 복합건축물",국민건강증진법 제9조,,100000,052-209-4131,울산광역시 동구 진성3길56,울산광역시 동구 진성3길56,울산광역시 동구,35.51043551,129.4263328,2019-09-18
"호텔현대(울산)부속건물",시설 실내,울산광역시,동구,"사무용 건축물, 공장 및 복합건축물",국민건강증진법 제9조,,100000,052-209-4131,울산광역시 동구 진성8길133,울산광역시 동구 진성8길133,울산광역시 동구,35.5114048,129.4297448,2019-09-18
"화암관",시설 실내,울산광역시,동구,"사무용 건축물, 공장 및 복합건축물",국민건강증진법 제9조,,100000,052-209-4131,울산광역시 동구 진성8길94,울산광역시 동구 진성8길94,울산광역시 동구,35.5093615,129.4297504,2019-09-18
"화잠관",시설 실내,울산광역시,동구,"사무용 건축물, 공장 및 복합건축물",국민건강증진법 제9조,,100000,052-209-4131,울산광역시 동구 진성9길46,울산광역시 동구 진성9길46,울산광역시 동구,35.5066986,129.428721,2019-09-18
"화정주공APT상가",시설 실내,울산광역시,동구,"사무용 건축물, 공장 및 복합건축물",국민건강증진법 제9조,,100000,052-209-4131,울산광역시 동구 진성9길52,울산광역시 동구 진성9길52,울산광역시 동구,35.539865,129.425822,2019-09-18
"화정현대1차상가",시설 실내,울산광역시,동구,"사무용 건축물, 공장 및 복합건축물",국민건강증진법 제9조,,100000,052-209-4131,울산광역시 동구 해수욕장10길38,울산광역시 동구 해수욕장10길38,울산광역시 동구,35.4936035,129.4307926,2019-09-18
"회전기공장",시설 실내,울산광역시,동구,"사무용 건축물, 공장 및 복합건축물",국민건강증진법 제9조,,100000,052-209-4131,울산광역시 동구 해수욕장10길60,울산광역시 동구 해수욕장10길60,울산광역시 동구,35.4924484,129.4318973,2019-09-18
"회전기배재창고",시설 실내,울산광역시,동구,"사무용 건축물, 공장 및 복합건축물",국민건강증진법 제9조,,100000,052-209-4131,울산광역시 동구 해수욕장1길4,울산광역시 동구 해수욕장1길4,울산광역시 동구,35.4964083,129.4283581,2019-09-18
"후생관",시설 실내,울산광역시,동구,"사무용 건축물, 공장 및 복합건축물",국민건강증진법 제9조,,100000,052-209-4131,울산광역시 동구 해수욕장길4,울산광역시 동구 해수욕장길4,울산광역시 동구,35.4966122,129.4280344,2019-09-18
"휴대폰아울렛건물",시설 실내,울산광역시,동구,"사무용 건축물, 공장 및 복합건축물",국민건강증진법 제9조,,100000,052-209-4131,울산광역시 동구 해수욕장길5,울산광역시 동구 해수욕장길5,울산광역시 동구,35.4970803,129.4283116,2019-09-18
"힐튼노래타운건물",시설 실내,울산광역시,동구,"사무용 건축물, 공장 및 복합건축물",국민건강증진법 제9조,,100000,052-209-4131,울산광역시 동구 해수욕장길6,울산광역시 동구 해수욕장길6,울산광역시 동구,35.4964996,129.4281867,2019-09-18
DECK HOUSE 공장,시설 실내,울산광역시,동구,"사무용 건축물, 공장 및 복합건축물",국민건강증진법 제9조,,100000,052-209-4131,울산광역시 동구 해수욕장길8,울산광역시 동구 해수욕장길8,울산광역시 동구,35.4965351,129.4283868,2019-09-18
kt방어진빌딩(동울산컨벤션),시설 실내,울산광역시,동구,"사무용 건축물, 공장 및 복합건축물",국민건강증진법 제9조,,100000,052-209-4131,울산광역시 동구 화암4길30,울산광역시 동구 화암4길30,울산광역시 동구,35.4788606,129.4106876,2019-09-18
KT전하빌딩,시설 실내,울산광역시,동구,"사무용 건축물, 공장 및 복합건축물",국민건강증진법 제9조,,100000,052-209-4131,울산광역시 동구 화정5길4,울산광역시 동구 화정5길4,울산광역시 동구,35.4938154,129.4256055,2019-09-18
LG전자서비스센터,시설 실내,울산광역시,동구,"사무용 건축물, 공장 및 복합건축물",국민건강증진법 제9조,,100000,052-209-4131,울산광역시 동구 화정6길16,울산광역시 동구 화정6길16,울산광역시 동구,35.4949852,129.4248536,2019-09-18
LNG자재창고,시설 실내,울산광역시,동구,"사무용 건축물, 공장 및 복합건축물",국민건강증진법 제9조,,100000,052-209-4131,울산광역시 동구 화진길27,울산광역시 동구 화진길27,울산광역시 동구,35.48918281,129.4212557,2019-09-18
LPG보온공장,시설 실내,울산광역시,동구,"사무용 건축물, 공장 및 복합건축물",국민건강증진법 제9조,,100000,052-209-4131,울산광역시 동구 방어진순환도로1132,울산광역시 동구 방어진순환도로1132,울산광역시 동구,35.5398283,129.4251458,2019-09-18
"가은실버홈 푸른삶복지센터",시설 실내,울산광역시,동구,사회복지시설,국민건강증진법 제9조,,100000,052-209-4131,울산광역시 동구 방어진순환도로 1273-1 (서부동),울산광역시 동구 방어진순환도로 1273-1 (서부동),울산광역시 동구,35.53195262,129.4139341,2019-09-18
"다비다노인요양원",시설 실내,울산광역시,동구,사회복지시설,국민건강증진법 제9조,,100000,052-209-4131,울산광역시 동구 방어진순환도로 1355 (서부동),울산광역시 동구 방어진순환도로 1355 (서부동),울산광역시 동구,35.527956,129.4069135,2019-09-18
"다흰주간보호센터",시설 실내,울산광역시,동구,사회복지시설,국민건강증진법 제9조,,100000,052-209-4131,"울산광역시 동구 방어진순환도로 663, 103호(일산동, 은빛천사아파트)","울산광역시 동구 방어진순환도로 663, 103호(일산동, 은빛천사아파트)",울산광역시 동구,35.5010261,129.4283242,2019-09-18
"동구 장애인보호작업장",시설 실내,울산광역시,동구,사회복지시설,국민건강증진법 제9조,,100000,052-209-4131,울산광역시 동구 꽃바위로 356(방어동),울산광역시 동구 꽃바위로 356(방어동),울산광역시 동구,35.48775711,129.4260207,2019-09-18
"동구노인복지관",시설 실내,울산광역시,동구,사회복지시설,국민건강증진법 제9조,,100000,052-209-4131,울산광역시 동구 녹수길 25 (전하동),울산광역시 동구 녹수길 25 (전하동),울산광역시 동구,35.5132998,129.429548,2019-09-18
"동구노인요양원",시설 실내,울산광역시,동구,사회복지시설,국민건강증진법 제9조,,100000,052-209-4131,울산광역시 동구 동진로87(방어동),울산광역시 동구 동진로87(방어동),울산광역시 동구,35.48921273,129.4324852,2019-09-18
"동구동구노인복지관전하분관",시설 실내,울산광역시,동구,사회복지시설,국민건강증진법 제9조,,100000,052-209-4131,울산광역시 동구 명덕6길 33(서부동),울산광역시 동구 명덕6길 33(서부동),울산광역시 동구,35.5246262,129.4314588,2019-09-18
"동구재가노인지원서비스센터",시설 실내,울산광역시,동구,사회복지시설,국민건강증진법 제9조,,100000,052-209-4131,울산광역시 동구 명덕6길 33(서부동),울산광역시 동구 명덕6길 33(서부동),울산광역시 동구,35.5246262,129.4314588,2019-09-18
"동구지역자활센터",시설 실내,울산광역시,동구,사회복지시설,국민건강증진법 제9조,,100000,052-209-4131,울산광역시 동구 명덕6길33(서부동),울산광역시 동구 명덕6길33(서부동),울산광역시 동구,35.5246262,129.4314588,2019-09-18
"동울산 노인복지센터",시설 실내,울산광역시,동구,사회복지시설,국민건강증진법 제9조,,100000,052-209-4131,"울산광역시 동구 문재5길 39, 1층 (방어동)","울산광역시 동구 문재5길 39, 1층 (방어동)",울산광역시 동구,35.4862343,129.4162161,2019-09-18
"밀알의집",시설 실내,울산광역시,동구,사회복지시설,국민건강증진법 제9조,,100000,052-209-4131,"울산광역시 동구 문재5길 39, 2층 (방어동)","울산광역시 동구 문재5길 39, 2층 (방어동)",울산광역시 동구,35.4862343,129.4162161,2019-09-18
"방어진노인복지관",시설 실내,울산광역시,동구,사회복지시설,국민건강증진법 제9조,,100000,052-209-4131,울산광역시 동구 문재로 3 (방어동),울산광역시 동구 문재로 3 (방어동),울산광역시 동구,35.4847166,129.4162281,2019-09-18
"사랑울타리",시설 실내,울산광역시,동구,사회복지시설,국민건강증진법 제9조,,100000,052-209-4131,울산광역시 동구 문현2길 41-1 (방어동),울산광역시 동구 문현2길 41-1 (방어동),울산광역시 동구,35.4872989,129.4108152,2019-09-18
"울산광역시동구장애인복지관",시설 실내,울산광역시,동구,사회복지시설,국민건강증진법 제9조,,100000,052-209-4131,울산광역시 동구 방어진순환도로 1271(서부동),울산광역시 동구 방어진순환도로 1271(서부동),울산광역시 동구,35.53241495,129.4144241,2019-09-18
"울산대학교병원 장례식장",시설 실내,울산광역시,동구,사회복지시설,국민건강증진법 제9조,,100000,052-209-4131,울산광역시 동구 방어진순환도로 877(전하동),울산광역시 동구 방어진순환도로 877(전하동),울산광역시 동구,35.5200568,129.4288608,2019-09-18
"울산동구시니어클럽",시설 실내,울산광역시,동구,사회복지시설,국민건강증진법 제9조,,100000,052-209-4131,울산광역시 동구 봉수로 28(방어동),울산광역시 동구 봉수로 28(방어동),울산광역시 동구,35.4900066,129.4172565,2019-09-18
"울산동구종합사회복지관 부설재가노인복지센터",시설 실내,울산광역시,동구,사회복지시설,국민건강증진법 제9조,,100000,052-209-4131,울산광역시 동구 봉수로155(화정동),울산광역시 동구 봉수로155(화정동),울산광역시 동구,35.5050862,129.4166463,2019-09-18
"울산밀알주간보호센터",시설 실내,울산광역시,동구,사회복지시설,국민건강증진법 제9조,,100000,052-209-4131,울산광역시 동구 상진1길 21(방어동),울산광역시 동구 상진1길 21(방어동),울산광역시 동구,35.48313491,129.4219775,2019-09-18
"울산참사랑의집",시설 실내,울산광역시,동구,사회복지시설,국민건강증진법 제9조,,100000,052-209-4131,울산광역시 동구 진성12길 120(전하동),울산광역시 동구 진성12길 120(전하동),울산광역시 동구,35.51061768,129.4274887,2019-09-18
"화정재가노인지원서비스센터",시설 실내,울산광역시,동구,사회복지시설,국민건강증진법 제9조,,100000,052-209-4131,울산광역시 동구 화잠8길 10 (방어동),울산광역시 동구 화잠8길 10 (방어동),울산광역시 동구,35.483449,129.4097022,2019-09-18
"희망장애인보호작업장",시설 실내,울산광역시,동구,사회복지시설,국민건강증진법 제9조,,100000,052-209-4131,"울산광역시 동구 후릉길 2,가동 101호(방어동,대동스타타 )","울산광역시 동구 후릉길 2,가동 101호(방어동,대동스타타 )",울산광역시 동구,35.4879476,129.4163762,2019-09-18
"(정)당구장",시설 실내,울산광역시,동구,실내체육시설,국민건강증진법 제9조,,100000,052-209-4131,울산광역시 동구 고늘로 6 (일산동),울산광역시 동구 고늘로 6 (일산동),울산광역시 동구,35.502068,129.429751,2019-09-18
24시 당구장,시설 실내,울산광역시,동구,실내체육시설,국민건강증진법 제9조,,100000,052-209-4131,"울산광역시 동구 고늘로 6, 2층 (일산동)","울산광역시 동구 고늘로 6, 2층 (일산동)",울산광역시 동구,35.5020418,129.429751,2019-09-18
7(세븐)당구클럽,시설 실내,울산광역시,동구,실내체육시설,국민건강증진법 제9조,,100000,052-209-4131,울산광역시 동구 꽃바위2길 24 (방어동),울산광역시 동구 꽃바위2길 24 (방어동),울산광역시 동구,35.481378,129.413351,2019-09-18
88무도학원,시설 실내,울산광역시,동구,실내체육시설,국민건강증진법 제9조,,100000,052-209-4131,울산광역시 동구 꽃바위2길 31 (방어동),울산광역시 동구 꽃바위2길 31 (방어동),울산광역시 동구,35.4812978,129.414149,2019-09-18
"가람당구장",시설 실내,울산광역시,동구,실내체육시설,국민건강증진법 제9조,,100000,052-209-4131,울산광역시 동구 꽃바위5길 52 (방어동),울산광역시 동구 꽃바위5길 52 (방어동),울산광역시 동구,35.48288522,129.4153779,2019-09-18
"경희대 명문 태권도장",시설 실내,울산광역시,동구,실내체육시설,국민건강증진법 제9조,,100000,052-209-4131,울산광역시 동구 꽃바위5길 55 (방어동),울산광역시 동구 꽃바위5길 55 (방어동),울산광역시 동구,35.48337449,129.4152427,2019-09-18
"고바우당구장",시설 실내,울산광역시,동구,실내체육시설,국민건강증진법 제9조,,100000,052-209-4131,"울산광역시 동구 꽃바위로 236, 2층 (방어동)","울산광역시 동구 꽃바위로 236, 2층 (방어동)",울산광역시 동구,35.4813734,129.4159292,2019-09-18
"골리앗헬스",시설 실내,울산광역시,동구,실내체육시설,국민건강증진법 제9조,,100000,052-209-4131,울산광역시 동구 꽃바위로 252 (방어동),울산광역시 동구 꽃바위로 252 (방어동),울산광역시 동구,35.482394,129.4172066,2019-09-18
"골프존월드",시설 실내,울산광역시,동구,실내체육시설,국민건강증진법 제9조,,100000,052-209-4131,"울산광역시 동구 꽃바위로 253, 2층 (방어동)","울산광역시 동구 꽃바위로 253, 2층 (방어동)",울산광역시 동구,35.482743,129.4170353,2019-09-18
"공원골프클럽",시설 실내,울산광역시,동구,실내체육시설,국민건강증진법 제9조,,100000,052-209-4131,울산광역시 동구 꽃바위로 259 (방어동),울산광역시 동구 꽃바위로 259 (방어동),울산광역시 동구,35.4830687,129.4175446,2019-09-18
"구슬당구장",시설 실내,울산광역시,동구,실내체육시설,국민건강증진법 제9조,,100000,052-209-4131,울산광역시 동구 꽃바위로 262 (방어동),울산광역시 동구 꽃바위로 262 (방어동),울산광역시 동구,35.4828964,129.4179383,2019-09-18
"굿모닝 사우나",시설 실내,울산광역시,동구,실내체육시설,국민건강증진법 제9조,,100000,052-209-4131,울산광역시 동구 꽃바위로 265 (방어동),울산광역시 동구 꽃바위로 265 (방어동),울산광역시 동구,35.4834041,129.4180662,2019-09-18
"금강태권도 3관",시설 실내,울산광역시,동구,실내체육시설,국민건강증진법 제9조,,100000,052-209-4131,울산광역시 동구 꽃바위로 265(방어동),울산광역시 동구 꽃바위로 265(방어동),울산광역시 동구,35.4834041,129.4180662,2019-09-18
"금탑체육관",시설 실내,울산광역시,동구,실내체육시설,국민건강증진법 제9조,,100000,052-209-4131,울산광역시 동구 꽃바위로 360 (방어동),울산광역시 동구 꽃바위로 360 (방어동),울산광역시 동구,35.4883748,129.4260153,2019-09-18
"김용극&김순금댄스스포츠",시설 실내,울산광역시,동구,실내체육시설,국민건강증진법 제9조,,100000,052-209-4131,"울산광역시 동구 남목11길 10, 2층 (동부동, 목화아파트 상가)","울산광역시 동구 남목11길 10, 2층 (동부동, 목화아파트 상가)",울산광역시 동구,35.54404287,129.4253299559,2019-09-18
"까리뇨캐롬클럽",시설 실내,울산광역시,동구,실내체육시설,국민건강증진법 제9조,,100000,052-209-4131,"울산광역시 동구 남목12길 15, 3층 301호 (동부동, 남목현대아파트상가)","울산광역시 동구 남목12길 15, 3층 301호 (동부동, 남목현대아파트상가)",울산광역시 동구,35.54564757,129.4272569,2019-09-18
"꿈나무태권스쿨",시설 실내,울산광역시,동구,실내체육시설,국민건강증진법 제9조,,100000,052-209-4131,울산광역시 동구 남목13길 22 (동부동),울산광역시 동구 남목13길 22 (동부동),울산광역시 동구,35.54445083,129.4285173,2019-09-18
"나인 복싱클럽",시설 실내,울산광역시,동구,실내체육시설,국민건강증진법 제9조,,100000,052-209-4131,울산광역시 동구 남목17길 16 (동부동),울산광역시 동구 남목17길 16 (동부동),울산광역시 동구,35.5426465,129.4280925,2019-09-18
"남목검도관",시설 실내,울산광역시,동구,실내체육시설,국민건강증진법 제9조,,100000,052-209-4131,"울산광역시 동구 남목17길 16 (동부동, 동부시장)","울산광역시 동구 남목17길 16 (동부동, 동부시장)",울산광역시 동구,35.5426465020,129.4280924934,2019-09-18
"남목문무태권도장",시설 실내,울산광역시,동구,실내체육시설,국민건강증진법 제9조,,100000,052-209-4131,울산광역시 동구 남목18길 8 (동부동),울산광역시 동구 남목18길 8 (동부동),울산광역시 동구,35.5427086,129.4286693,2019-09-18
"남목시티프라자헬스",시설 실내,울산광역시,동구,실내체육시설,국민건강증진법 제9조,,100000,052-209-4131,울산광역시 동구 남목18길 8 (동부동),울산광역시 동구 남목18길 8 (동부동),울산광역시 동구,35.5427086,129.4286693,2019-09-18
"남목실내골프연습장",시설 실내,울산광역시,동구,실내체육시설,국민건강증진법 제9조,,100000,052-209-4131,울산광역시 동구 남진길 35 (방어동),울산광역시 동구 남진길 35 (방어동),울산광역시 동구,35.4813482,129.4171486,2019-09-18
"당구나라",시설 실내,울산광역시,동구,실내체육시설,국민건강증진법 제9조,,100000,052-209-4131,"울산광역시 동구 내진길 78-7, 2층 (방어동)","울산광역시 동구 내진길 78-7, 2층 (방어동)",울산광역시 동구,35.4846999,129.4232946,2019-09-18
"당구치는 사람들",시설 실내,울산광역시,동구,실내체육시설,국민건강증진법 제9조,,100000,052-209-4131,울산광역시 동구 녹수11길 45 (전하동),울산광역시 동구 녹수11길 45 (전하동),울산광역시 동구,35.5149187,129.4262608,2019-09-18
"당구판타지",시설 실내,울산광역시,동구,실내체육시설,국민건강증진법 제9조,,100000,052-209-4131,울산광역시 동구 녹수8길 60 (전하동),울산광역시 동구 녹수8길 60 (전하동),울산광역시 동구,35.515156,129.4312631,2019-09-18
"대건체육관",시설 실내,울산광역시,동구,실내체육시설,국민건강증진법 제9조,,100000,052-209-4131,울산광역시 동구 대송11길 73 (화정동),울산광역시 동구 대송11길 73 (화정동),울산광역시 동구,35.502909,129.4232025,2019-09-18
"대성태권도",시설 실내,울산광역시,동구,실내체육시설,국민건강증진법 제9조,,100000,052-209-4131,"울산광역시 동구 대송1길 49, 2층 (화정동)","울산광역시 동구 대송1길 49, 2층 (화정동)",울산광역시 동구,35.4994829,129.4212364,2019-09-18
"대왕암당구장(6대)",시설 실내,울산광역시,동구,실내체육시설,국민건강증진법 제9조,,100000,052-209-4131,울산광역시 동구 대송1길 50 (화정동),울산광역시 동구 대송1길 50 (화정동),울산광역시 동구,35.4992184,129.4211249,2019-09-18
"대왕암스크린골프",시설 실내,울산광역시,동구,실내체육시설,국민건강증진법 제9조,,100000,052-209-4131,울산광역시 동구 대송2길 19 (화정동),울산광역시 동구 대송2길 19 (화정동),울산광역시 동구,35.5005728,129.4186953,2019-09-18
"대왕암스파랜드(헬스)",시설 실내,울산광역시,동구,실내체육시설,국민건강증진법 제9조,,100000,052-209-4131,"울산광역시 동구 대송2길 19, 3층 (화정동, 160-9)","울산광역시 동구 대송2길 19, 3층 (화정동, 160-9)",울산광역시 동구,35.5005728,129.4186953,2019-09-18
"대하체육관",시설 실내,울산광역시,동구,실내체육시설,국민건강증진법 제9조,,100000,052-209-4131,울산광역시 동구 대송6길 30 (화정동),울산광역시 동구 대송6길 30 (화정동),울산광역시 동구,35.5000067,129.4189322,2019-09-18
"대한체육관",시설 실내,울산광역시,동구,실내체육시설,국민건강증진법 제9조,,100000,052-209-4131,"울산광역시 동구 대송6길 46, 2층 (화정동)","울산광역시 동구 대송6길 46, 2층 (화정동)",울산광역시 동구,35.5007725,129.4186503,2019-09-18
"덕광태권도장",시설 실내,울산광역시,동구,실내체육시설,국민건강증진법 제9조,,100000,052-209-4131,울산광역시 동구 대송7길 21 (화정동),울산광역시 동구 대송7길 21 (화정동),울산광역시 동구,35.49978277,129.4192777,2019-09-18
"동구스크린골프",시설 실내,울산광역시,동구,실내체육시설,국민건강증진법 제9조,,100000,052-209-4131,울산광역시 동구 대송8길 13 (화정동),울산광역시 동구 대송8길 13 (화정동),울산광역시 동구,35.4995665,129.4201876,2019-09-18
"동부골프존",시설 실내,울산광역시,동구,실내체육시설,국민건강증진법 제9조,,100000,052-209-4131,울산광역시 동구 대송8길 31 (화정동),울산광역시 동구 대송8길 31 (화정동),울산광역시 동구,35.5007255,129.4198872,2019-09-18
"동부회관수영장",시설 실내,울산광역시,동구,실내체육시설,국민건강증진법 제9조,,100000,052-209-4131,"울산광역시 동구 대송8길 32, 2층 (화정동)","울산광역시 동구 대송8길 32, 2층 (화정동)",울산광역시 동구,35.5007299,129.4201265,2019-09-18
"동부회관헬스",시설 실내,울산광역시,동구,실내체육시설,국민건강증진법 제9조,,100000,052-209-4131,울산광역시 동구 대송9길 13 (화정동),울산광역시 동구 대송9길 13 (화정동),울산광역시 동구,35.4995358,129.4208064,2019-09-18
"동서 FITNESS CLUB",시설 실내,울산광역시,동구,실내체육시설,국민건강증진법 제9조,,100000,052-209-4131,울산광역시 동구 대송로 11 (일산동),울산광역시 동구 대송로 11 (일산동),울산광역시 동구,35.5040481,129.4280217,2019-09-18
"동아대 힘찬 태권도",시설 실내,울산광역시,동구,실내체육시설,국민건강증진법 제9조,,100000,052-209-4131,울산광역시 동구 대학길 103 (화정동),울산광역시 동구 대학길 103 (화정동),울산광역시 동구,35.4985361,129.4234957,2019-09-18
"동아대 KAT 태권도",시설 실내,울산광역시,동구,실내체육시설,국민건강증진법 제9조,,100000,052-209-4131,울산광역시 동구 대학길 145 (일산동),울산광역시 동구 대학길 145 (일산동),울산광역시 동구,35.4977577,129.4256047,2019-09-18
"동울산 당구클럽",시설 실내,울산광역시,동구,실내체육시설,국민건강증진법 제9조,,100000,052-209-4131,울산광역시 동구 대학길 156 (화정동),울산광역시 동구 대학길 156 (화정동),울산광역시 동구,35.4972232,129.4257616,2019-09-18
"동울산골프클럽",시설 실내,울산광역시,동구,실내체육시설,국민건강증진법 제9조,,100000,052-209-4131,울산광역시 동구 대학길 30 (화정동),울산광역시 동구 대학길 30 (화정동),울산광역시 동구,35.4982939,129.4195733,2019-09-18
"동일당구장",시설 실내,울산광역시,동구,실내체육시설,국민건강증진법 제9조,,100000,052-209-4131,"울산광역시 동구 대학길 50, 3층 (화정동)","울산광역시 동구 대학길 50, 3층 (화정동)",울산광역시 동구,35.4985672,129.4205524,2019-09-18
"드림골프존",시설 실내,울산광역시,동구,실내체육시설,국민건강증진법 제9조,,100000,052-209-4131,"울산광역시 동구 대학길 68, 2층 (화정동)","울산광역시 동구 대학길 68, 2층 (화정동)",울산광역시 동구,35.4985327,129.4214104,2019-09-18
"라인헬스클럽",시설 실내,울산광역시,동구,실내체육시설,국민건강증진법 제9조,,100000,052-209-4131,울산광역시 동구 대학길 71 (화정동),울산광역시 동구 대학길 71 (화정동),울산광역시 동구,35.4989006,129.4217056,2019-09-18
"락당구클럽",시설 실내,울산광역시,동구,실내체육시설,국민건강증진법 제9조,,100000,052-209-4131,울산광역시 동구 대학길 83 (화정동),울산광역시 동구 대학길 83 (화정동),울산광역시 동구,35.4987129,129.4224143,2019-09-18
"런-트레이닝",시설 실내,울산광역시,동구,실내체육시설,국민건강증진법 제9조,,100000,052-209-4131,울산광역시 동구 동진로 10 (방어동),울산광역시 동구 동진로 10 (방어동),울산광역시 동구,35.4865665,129.4264252,2019-09-18
"리오당구장(9대)",시설 실내,울산광역시,동구,실내체육시설,국민건강증진법 제9조,,100000,052-209-4131,울산광역시 동구 동진로 15 (방어동),울산광역시 동구 동진로 15 (방어동),울산광역시 동구,35.4867653,129.4270646,2019-09-18
"리치당구클럽",시설 실내,울산광역시,동구,실내체육시설,국민건강증진법 제9조,,100000,052-209-4131,울산광역시 동구 동진로 4 (방어동),울산광역시 동구 동진로 4 (방어동),울산광역시 동구,35.4867066,129.4256276,2019-09-18
"마스터골프연습장",시설 실내,울산광역시,동구,실내체육시설,국민건강증진법 제9조,,100000,052-209-4131,울산광역시 동구 동해안로 21 (서부동),울산광역시 동구 동해안로 21 (서부동),울산광역시 동구,35.5413355,129.4258054,2019-09-18
"맘모스수영장",시설 실내,울산광역시,동구,실내체육시설,국민건강증진법 제9조,,100000,052-209-4131,울산광역시 동구 동해안로 43 (동부동),울산광역시 동구 동해안로 43 (동부동),울산광역시 동구,35.5423965,129.4280032,2019-09-18
"명덕당구장",시설 실내,울산광역시,동구,실내체육시설,국민건강증진법 제9조,,100000,052-209-4131,"울산광역시 동구 동해안로 43, 4층 (동부동)","울산광역시 동구 동해안로 43, 4층 (동부동)",울산광역시 동구,35.5423965,129.4280032,2019-09-18
"문무체육관",시설 실내,울산광역시,동구,실내체육시설,국민건강증진법 제9조,,100000,052-209-4131,울산광역시 동구 동해안로 49 (동부동),울산광역시 동구 동해안로 49 (동부동),울산광역시 동구,35.5423461,129.4286022,2019-09-18
"문현 孝 태권도장",시설 실내,울산광역시,동구,실내체육시설,국민건강증진법 제9조,,100000,052-209-4131,"울산광역시 동구 동해안로 49, 2층 (동부동)","울산광역시 동구 동해안로 49, 2층 (동부동)",울산광역시 동구,35.5423461,129.4286022,2019-09-18
"문현당구클럽",시설 실내,울산광역시,동구,실내체육시설,국민건강증진법 제9조,,100000,052-209-4131,울산광역시 동구 등대3길 8 (방어동),울산광역시 동구 등대3길 8 (방어동),울산광역시 동구,35.48984609,129.4266299,2019-09-18
"미동태권도",시설 실내,울산광역시,동구,실내체육시설,국민건강증진법 제9조,,100000,052-209-4131,울산광역시 동구 등대4길 25 (방어동),울산광역시 동구 등대4길 25 (방어동),울산광역시 동구,35.4898578,129.4288221,2019-09-18
"민당구클럽",시설 실내,울산광역시,동구,실내체육시설,국민건강증진법 제9조,,100000,052-209-4131,울산광역시 동구 등대5길 1 (방어동),울산광역시 동구 등대5길 1 (방어동),울산광역시 동구,35.48791201,129.4288897,2019-09-18
"밀당당구장",시설 실내,울산광역시,동구,실내체육시설,국민건강증진법 제9조,,100000,052-209-4131,울산광역시 동구 등대로 40 (방어동),울산광역시 동구 등대로 40 (방어동),울산광역시 동구,35.49043056,129.4300012,2019-09-18
"박사태권도 스포츠 클럽",시설 실내,울산광역시,동구,실내체육시설,국민건강증진법 제9조,,100000,052-209-4131,"울산광역시 동구 등대로 8-4, 야우쉐르빌 (화정동)","울산광역시 동구 등대로 8-4, 야우쉐르빌 (화정동)",울산광역시 동구,35.4920758,129.4271408,2019-09-18
"백운당구장",시설 실내,울산광역시,동구,실내체육시설,국민건강증진법 제9조,,100000,052-209-4131,"울산광역시 동구 명덕2길 4, 2층 (서부동)","울산광역시 동구 명덕2길 4, 2층 (서부동)",울산광역시 동구,35.525088,129.4326467,2019-09-18
"복지당구장(5대)",시설 실내,울산광역시,동구,실내체육시설,국민건강증진법 제9조,,100000,052-209-4131,울산광역시 동구 명덕3길 26 (서부동),울산광역시 동구 명덕3길 26 (서부동),울산광역시 동구,35.5239514,129.4310599,2019-09-18
"블루문 당구장",시설 실내,울산광역시,동구,실내체육시설,국민건강증진법 제9조,,100000,052-209-4131,울산광역시 동구 명덕3길 3 (서부동),울산광역시 동구 명덕3길 3 (서부동),울산광역시 동구,35.5233221,129.4324389,2019-09-18
"비치골프클럽연습장",시설 실내,울산광역시,동구,실내체육시설,국민건강증진법 제9조,,100000,052-209-4131,울산광역시 동구 명덕3길 9 (서부동),울산광역시 동구 명덕3길 9 (서부동),울산광역시 동구,35.523473,129.4320271,2019-09-18
"비치당구장",시설 실내,울산광역시,동구,실내체육시설,국민건강증진법 제9조,,100000,052-209-4131,울산광역시 동구 명덕4길 11 (서부동),울산광역시 동구 명덕4길 11 (서부동),울산광역시 동구,35.523192,129.4320915,2019-09-18
"산돌태권도",시설 실내,울산광역시,동구,실내체육시설,국민건강증진법 제9조,,100000,052-209-4131,울산광역시 동구 명덕4길 11 (서부동),울산광역시 동구 명덕4길 11 (서부동),울산광역시 동구,35.523192,129.4320915,2019-09-18
"샴페인당구장",시설 실내,울산광역시,동구,실내체육시설,국민건강증진법 제9조,,100000,052-209-4131,울산광역시 동구 명덕7길 22 (서부동),울산광역시 동구 명덕7길 22 (서부동),울산광역시 동구,35.52400304,129.430912,2019-09-18
"서부패밀리 태권도장",시설 실내,울산광역시,동구,실내체육시설,국민건강증진법 제9조,,100000,052-209-4131,울산광역시 동구 명덕7길 29 (서부동),울산광역시 동구 명덕7길 29 (서부동),울산광역시 동구,35.5244221,129.4307331,2019-09-18
"서부회관헬스",시설 실내,울산광역시,동구,실내체육시설,국민건강증진법 제9조,,100000,052-209-4131,울산광역시 동구 문재1길 38 (방어동),울산광역시 동구 문재1길 38 (방어동),울산광역시 동구,35.4861249,129.4177074,2019-09-18
"선운검도관",시설 실내,울산광역시,동구,실내체육시설,국민건강증진법 제9조,,100000,052-209-4131,울산광역시 동구 문재1길 53 (방어동),울산광역시 동구 문재1길 53 (방어동),울산광역시 동구,35.4858217,129.4191908,2019-09-18
"선후당구클럽",시설 실내,울산광역시,동구,실내체육시설,국민건강증진법 제9조,,100000,052-209-4131,울산광역시 동구 문재1길 60 (방어동),울산광역시 동구 문재1길 60 (방어동),울산광역시 동구,35.4853195,129.4195126,2019-09-18
"성림태권도장",시설 실내,울산광역시,동구,실내체육시설,국민건강증진법 제9조,,100000,052-209-4131,울산광역시 동구 문재1길 60 (방어동),울산광역시 동구 문재1길 60 (방어동),울산광역시 동구,35.4853195,129.4195126,2019-09-18
"성원태권도장",시설 실내,울산광역시,동구,실내체육시설,국민건강증진법 제9조,,100000,052-209-4131,울산광역시 동구 문재2길 21 (방어동),울산광역시 동구 문재2길 21 (방어동),울산광역시 동구,35.485293,129.4159418,2019-09-18
"세계골프아카데미",시설 실내,울산광역시,동구,실내체육시설,국민건강증진법 제9조,,100000,052-209-4131,울산광역시 동구 문재2길 65 (방어동),울산광역시 동구 문재2길 65 (방어동),울산광역시 동구,35.4855256,129.4189994,2019-09-18
"세븐골프연습장",시설 실내,울산광역시,동구,실내체육시설,국민건강증진법 제9조,,100000,052-209-4131,울산광역시 동구 문재3길 25 (방어동),울산광역시 동구 문재3길 25 (방어동),울산광역시 동구,35.4845776,129.4161485,2019-09-18
"수어피트니스",시설 실내,울산광역시,동구,실내체육시설,국민건강증진법 제9조,,100000,052-209-4131,"울산광역시 동구 문재6길 6, 2층 (방어동)","울산광역시 동구 문재6길 6, 2층 (방어동)",울산광역시 동구,35.4829844,129.4170429,2019-09-18
"수정당구장(7대)",시설 실내,울산광역시,동구,실내체육시설,국민건강증진법 제9조,,100000,052-209-4131,울산광역시 동구 문재7길 1 (방어동),울산광역시 동구 문재7길 1 (방어동),울산광역시 동구,35.4832501,129.4178277,2019-09-18
"스타 스크린 골프",시설 실내,울산광역시,동구,실내체육시설,국민건강증진법 제9조,,100000,052-209-4131,울산광역시 동구 문재7길 11 (방어동),울산광역시 동구 문재7길 11 (방어동),울산광역시 동구,35.483749,129.4174805,2019-09-18
"스타당구장",시설 실내,울산광역시,동구,실내체육시설,국민건강증진법 제9조,,100000,052-209-4131,울산광역시 동구 문현로 34 (방어동),울산광역시 동구 문현로 34 (방어동),울산광역시 동구,35.48541171,129.4134001,2019-09-18
"스타당구클럽",시설 실내,울산광역시,동구,실내체육시설,국민건강증진법 제9조,,100000,052-209-4131,울산광역시 동구 문현로 37 (방어동),울산광역시 동구 문현로 37 (방어동),울산광역시 동구,35.4848608,129.4137501,2019-09-18
"승원 당구장",시설 실내,울산광역시,동구,실내체육시설,국민건강증진법 제9조,,100000,052-209-4131,울산광역시 동구 미포1길 46-17 (동부동),울산광역시 동구 미포1길 46-17 (동부동),울산광역시 동구,35.5417933,129.4290853,2019-09-18
"신일당구장(7대)",시설 실내,울산광역시,동구,실내체육시설,국민건강증진법 제9조,,100000,052-209-4131,울산광역시 동구 미포1길 50 (동부동),울산광역시 동구 미포1길 50 (동부동),울산광역시 동구,35.5415994,129.4287974,2019-09-18
"신화정 태권도",시설 실내,울산광역시,동구,실내체육시설,국민건강증진법 제9조,,100000,052-209-4131,울산광역시 동구 미포4길 18 (동부동),울산광역시 동구 미포4길 18 (동부동),울산광역시 동구,35.5410606,129.4271833,2019-09-18
"에이스 당구장",시설 실내,울산광역시,동구,실내체육시설,국민건강증진법 제9조,,100000,052-209-4131,울산광역시 동구 바드래1길 30 (전하동),울산광역시 동구 바드래1길 30 (전하동),울산광역시 동구,35.51873825,129.4271118,2019-09-18
